# LAS format log file from PETREL
# Project units are specified as depth units
#==================================================================
~Version information
VERS.   2.0:
WRAP.   NO:
#==================================================================
~Well
STRT.m   215.0000                                  :START DEPTH    
STOP.m   3894.9700                                 :STOP DEPTH     
STEP.m   0.0700                                    :STEP           
NULL.    -999.25                                   :NULL VALUE     
COMP.    Shell BP Todd                             :COMPANY        
WELL.    Wainui-1                                  :WELL           
FLD .    N/A                                       :FIELD          
LOC .    LAT -38.4626847  LON 173.3085245          :LOCATION       
LATI.    -38.4626847                               :SURF. LATITUDE 
LONG.    173.3085245                               :SURF. LONGITUDE
EKB .m   11.300                                    :KB ELEVATION   
EGL .m   -153.700                                  :GROUND LEVEL   
CTRY.    New Zealand                               :COUNTRY        
SRVC.                                              :SERVICE COMPANY
DATE.    30-10-1981 (D-M-Y)                        :LOG DATE       
UWI .    GEO599                                    :UNIQUE WELL ID 
#==================================================================
~Curve
DEPT .m                   : DEPTH
CNL .m3/m3                : CNL
DRH .g/cm3                : DRH
ILD .ohm.m                : ILD
SP .mV                    : SP
BHC .us/ft                : BHC
FDC .g/cm3                : FDC
GRI .API                  : GRI
~Parameter
#==================================================================
~Ascii
# ...
 1772.7100000 0.3456000090 -0.000026052 1.5691375732 58.516529083 107.88580322 2.2780001163 60.000000000
 1772.7800000 0.3452000022 -0.000026052 1.5691375732 58.516529083 107.88580322 2.2780001163 61.150001526
 1772.8500000 0.3452000022 -0.000029058 1.5262750387 56.380779266 109.98999786 2.2769999504 62.299999237
 1772.9200000 0.3420000076 -0.000029058 1.5262750387 56.380779266 109.98999786 2.2769999504 63.250000000
 1772.9900000 0.3420000076 -0.000028056 1.5262750387 57.008941650 112.14430237 2.2690000534 64.199996948
 1773.0600000 0.3388000131 -0.000028056 1.5262750387 57.008941650 112.14430237 2.2690000534 64.266662598
 1773.1300000 0.3371999860 -0.000024048 1.5262750387 57.260208130 113.99800110 2.2690000534 64.333320618
 1773.2000000 0.3371999860 -0.000024048 1.5262750387 57.260208130 113.99800110 2.2690000534 64.399986267
 1773.2700000 0.3438000083 -0.000028056 1.5262750387 58.265270233 114.29859924 2.2620000839 63.349990845
 1773.3400000 0.3438000083 -0.000028056 1.5262750387 58.265270233 114.29859924 2.2620000839 62.299999237
 1773.4100000 0.3531999886 -0.000023046 1.5123100281 60.275398254 112.34470367 2.2679998875 62.599998474
 1773.4800000 0.3531999886 -0.000023046 1.5123100281 60.275398254 112.34470367 2.2679998875 62.900001526
 1773.5500000 0.3616999984 -0.000023046 1.5123100281 60.275398254 112.34470367 2.2679998875 62.849998474
 1773.6200000 0.3616999984 -0.000010020 1.5123100281 62.536792755 112.09420013 2.2860000134 62.799999237
 1773.6900000 0.3702000082 -0.000010020 1.5123100281 62.536792755 112.09420013 2.2860000134 62.799999237
 1773.7600000 0.3772000074 -0.000012024 1.5123100281 63.793106079 112.09420013 2.2980000973 62.799999237
 1773.8300000 0.3772000074 -0.000012024 1.5123100281 63.793106079 112.09420013 2.2980000973 62.099998474
 1773.9000000 0.3741999865 -0.000012024 1.5123100281 67.310836792 111.84369659 2.2899999619 61.400001526
 1773.9700000 0.3741999865 -0.000012024 1.5123100281 67.310836792 111.84369659 2.2899999619 61.299999237
 1774.0400000 0.3684000075 -0.000015030 1.5123100281 69.823486328 111.79360199 2.2869999409 61.200000763
 1774.1100000 0.3684000075 -0.000015030 1.5123100281 69.823486328 111.79360199 2.2869999409 61.099998474
 1774.1800000 0.3673999906 -0.000016032 1.5262750387 71.456733704 109.68939972 2.2839999199 59.849998474
 1774.2500000 0.3624001145 -0.000016032 1.5262750387 71.456733704 109.68939972 2.2839999199 58.599998474
 1774.3200000 0.3624001145 -0.000021042 1.5262750387 72.336151123 110.09020233 2.2890000343 58.099998474
 1774.3900000 0.3574000895 -0.000021042 1.5262750387 72.336151123 110.09020233 2.2890000343 57.599998474
 1774.4600000 0.3574000895 -0.000021042 1.5262750387 72.336151123 110.09020233 2.2890000343 57.900001526
 1774.5300000 0.3547999859 -0.000015030 1.5545929670 71.833618164 110.19039917 2.2929999828 58.200000763
 1774.6000000 0.3547999859 -0.000015030 1.5545929670 71.833618164 110.19039917 2.2929999828 58.599998474
 1774.6700000 0.3625999987 -0.000001002 1.5689489841 71.833618164 110.94190216 2.3099999428 59.000000000
 1774.7400000 0.3625999987 -0.000001002 1.5689489841 71.833618164 110.94190216 2.3099999428 58.450000763
 1774.8100000 0.3673999906 0.0000070140 1.6128159761 69.949127197 109.78959656 2.3220000267 57.900001526
 1774.8800000 0.3641999960 0.0000070140 1.6128159761 69.949127197 109.78959656 2.3220000267 57.799999237
 1774.9500000 0.3641999960 0.0000120240 1.6277090311 63.416213989 107.93589783 2.3250000477 57.700000763
 1775.0200000 0.3610000014 0.0000120240 1.6277090311 63.416213989 107.93589783 2.3250000477 57.599998474
 1775.0900000 0.3610000014 0.0000030060 1.6427400112 59.270320892 106.58319855 2.3289999962 57.799999237
 1775.1600000 0.3467999995 0.0000030060 1.6427400112 59.270320892 106.58319855 2.3289999962 58.000000000
 1775.2300000 0.3467999995 -0.000004008 1.6579099894 57.888370514 105.18039703 2.3289999962 58.099998474
 1775.3000000 0.3420000076 -0.000004008 1.6579099894 57.888370514 105.18039703 2.3289999962 58.200000763
 1775.3700000 0.3456000090 -0.000004008 1.6579099894 57.888370514 105.18039703 2.3289999962 58.300003052
 1775.4400000 0.3456000090 -0.000002004 1.6579099894 58.516529083 105.73149872 2.3259999752 58.400001526
 1775.5100000 0.3445999920 -0.000002004 1.6579099894 58.516529083 105.73149872 2.3259999752 58.500000000
 1775.5800000 0.3445999920 -0.000002004 1.6579099894 60.903560638 105.93190002 2.3299999237 58.599998474
 1775.6500000 0.3424000144 -0.000002004 1.6579099894 60.903560638 105.93190002 2.3299999237 58.500000000
 1775.7200000 0.3424000144 -0.000007014 1.6427400112 64.295639038 105.68139648 2.3199999332 58.400001526
 1775.7900000 0.3402000070 -0.000007014 1.6427400112 64.295639038 105.68139648 2.3199999332 58.133335114
 1775.8600000 0.3314000070 -0.000013026 1.6277090311 63.416213989 105.78160095 2.3120000362 57.866664886
 1775.9300000 0.3314000070 -0.000013026 1.6277090311 63.416213989 105.78160095 2.3120000362 57.599998474
 1776.0000000 0.3364000022 -0.000010020 1.5980590582 63.416213989 105.88179779 2.3139998913 58.549999237
 1776.0700000 0.3364000022 -0.000010020 1.5980590582 63.416213989 105.88179779 2.3139998913 59.500000000
 1776.1400000 0.3477999866 -0.000007014 1.5689489841 63.918754578 105.68139648 2.3159999847 59.450000763
 1776.2100000 0.3477999866 -0.000007014 1.5689489841 63.918754578 105.68139648 2.3159999847 59.400001526
 1776.2800000 0.3504000008 -0.000007014 1.5689489841 63.918754578 105.68139648 2.3159999847 58.500000000
 1776.3500000 0.3504000008 0.0000020040 1.5689489841 63.793106079 105.68139648 2.3129999638 57.599998474
 1776.4200000 0.3529999852 0.0000020040 1.5689489841 63.793106079 105.68139648 2.3129999638 57.349998474
 1776.4900000 0.3364000022 0.0000030060 1.5545929670 63.918754578 105.68139648 2.3139998913 57.099998474
 1776.5600000 0.3364000022 0.0000030060 1.5545929670 63.918754578 105.68139648 2.3139998913 57.949996948
 1776.6300000 0.3265999854 0.0000010020 1.5545929670 62.788063049 105.08020020 2.3159999847 58.799999237
 1776.7000000 0.3265999854 0.0000010020 1.5545929670 62.788063049 105.08020020 2.3159999847 59.599998474
 1776.7700000 0.3339999914 -0.000003006 1.5545929670 61.280460358 105.48100281 2.3210000992 60.400001526
 1776.8400000 0.3339999914 -0.000003006 1.5545929670 61.280460358 105.48100281 2.3210000992 61.200000763
 1776.9100000 0.3328999877 0.0000020040 1.5545929670 61.406101227 105.73149872 2.3310000896 61.200000763
 1776.9800000 0.3318000138 0.0000020040 1.5545929670 61.406101227 105.73149872 2.3310000896 61.200000763
 1777.0500000 0.3318000138 0.0000020040 1.5545929670 61.406101227 105.73149872 2.3310000896 61.000000000
 1777.1200000 0.3253999949 -0.000004008 1.5689489841 59.395969391 105.83170319 2.3369998932 60.799999237
 1777.1900000 0.3253999949 -0.000004008 1.5689489841 59.395969391 105.83170319 2.3369998932 60.049999237
 1777.2600000 0.3258000016 -0.000002004 1.5689489841 58.767799377 106.28260040 2.3310000896 59.299999237
 1777.3300000 0.3258000016 -0.000002004 1.5689489841 58.767799377 106.28260040 2.3310000896 58.900001526
 1777.4000000 0.3382000029 -0.000001002 1.5689489841 58.642169952 106.08219910 2.3259999752 58.500000000
 1777.4700000 0.3382000029 -0.000001002 1.5689489841 58.642169952 106.08219910 2.3259999752 58.950000763
 1777.5400000 0.3332000077 -0.000005010 1.5980590582 59.019069672 106.98400116 2.3210000992 59.400001526
 1777.6100000 0.3346999884 -0.000005010 1.5980590582 59.019069672 106.98400116 2.3210000992 59.533332825
 1777.6800000 0.3346999884 -0.000004008 1.5980590582 59.395969391 107.83570099 2.3250000477 59.666667938
 1777.7500000 0.3361999989 -0.000004008 1.5980590582 59.395969391 107.83570099 2.3250000477 59.799999237
 1777.8200000 0.3361999989 -0.000011022 1.5980590582 60.401020050 106.73349762 2.3210000992 59.949996948
 1777.8900000 0.3328000009 -0.000011022 1.5980590582 60.401020050 106.73349762 2.3210000992 60.099998474
 1777.9600000 0.3328000009 -0.000011022 1.5980590582 60.401020050 106.73349762 2.3210000992 59.900001526
 1778.0300000 0.3276000023 -0.000007014 1.5980590582 60.275398254 106.53309631 2.3099999428 59.700000763
