# LAS format log file from PETREL
# Project units are specified as depth units
#==================================================================
~Version information
VERS.   2.0:
WRAP.   NO:
#==================================================================
~Well
STRT.m   215.0000                                  :START DEPTH    
STOP.m   3894.9700                                 :STOP DEPTH     
STEP.m   0.0700                                    :STEP           
NULL.    -999.25                                   :NULL VALUE     
COMP.    Shell BP Todd                             :COMPANY        
WELL.    Wainui-1                                  :WELL           
FLD .    N/A                                       :FIELD          
LOC .    LAT -38.4626847  LON 173.3085245          :LOCATION       
LATI.    -38.4626847                               :SURF. LATITUDE 
LONG.    173.3085245                               :SURF. LONGITUDE
EKB .m   11.300                                    :KB ELEVATION   
EGL .m   -153.700                                  :GROUND LEVEL   
CTRY.    New Zealand                               :COUNTRY        
SRVC.                                              :SERVICE COMPANY
DATE.    30-10-1981 (D-M-Y)                        :LOG DATE       
UWI .    GEO599                                    :UNIQUE WELL ID 
#==================================================================
~Curve
DEPT .m                   : DEPTH
CNL .m3/m3                : CNL
DRH .g/cm3                : DRH
ILD .ohm.m                : ILD
SP .mV                    : SP
BHC .us/ft                : BHC
FDC .g/cm3                : FDC
GRI .API                  : GRI
~Parameter
#==================================================================
~Ascii
# ...
 899.53000000 0.4244281054 0.0000838323 1.1803209782 70.500000000 147.75610352 2.1886780262 76.704109192
 899.60000000 0.4244281054 0.0000688623 1.1803209782 71.125000000 146.90550232 2.1916809082 76.554199219
 899.67000000 0.4244281054 0.0000688623 1.1803209782 71.125000000 146.90550232 2.1916809082 76.454254150
 899.74000000 0.4388298988 0.0000608782 1.1803209782 71.750000000 147.80619812 2.1766650677 76.354316711
 899.81000000 0.4387299120 0.0000608782 1.1803209782 71.750000000 147.80619812 2.1766650677 76.420944214
 899.88000000 0.4387299120 0.0000419162 1.1912419796 73.000000000 149.40739441 2.1566441059 76.487571716
 899.95000000 0.4386298060 0.0000419162 1.1912419796 73.000000000 149.40739441 2.1566441059 76.554199219
 900.02000000 0.4386298060 0.0000598802 1.1912419796 72.500000000 148.65679932 2.1686570644 76.054489136
 900.09000000 0.4226278961 0.0000598802 1.1912419796 72.500000000 148.65679932 2.1686570644 75.554786682
 900.16000000 0.4226278961 0.0000598802 1.1912419796 72.500000000 148.65679932 2.1686570644 75.854614258
 900.23000000 0.3952243924 0.0000618762 1.2022639513 70.500000000 147.80619812 2.1746630669 76.154449463
 900.30000000 0.4020253122 0.0000618762 1.2022639513 70.500000000 147.80619812 2.1746630669 76.604179382
 900.37000000 0.4020253122 0.0000538922 1.2022639513 69.000000000 146.00469971 2.1656539440 77.053909302
 900.44000000 0.4098261893 0.0000538922 1.2022639513 69.000000000 146.00469971 2.1656539440 76.953964233
 900.51000000 0.4098261893 0.0000578842 1.2133890390 67.750000000 145.40429688 2.1646530628 76.854019165
 900.58000000 0.4176271856 0.0000578842 1.2133890390 67.750000000 145.40429688 2.1646530628 76.487571716
 900.65000000 0.4176271856 0.0000499002 1.2133890390 67.250000000 146.10479736 2.1596469879 76.121124268
 900.72000000 0.4268284142 0.0000499002 1.2133890390 67.250000000 146.10479736 2.1596469879 75.754676819
 900.79000000 0.4268284142 0.0000379241 1.2133890390 66.500000000 146.00469971 2.1526401043 75.005126953
 900.86000000 0.4272283912 0.0000379241 1.2133890390 66.500000000 146.00469971 2.1526401043 74.255577087
 900.93000000 0.4094262123 0.0000409182 1.2133890390 66.750000000 146.30499268 2.1466341019 74.555397034
 901.00000000 0.4094262123 0.0000409182 1.2133890390 66.750000000 146.30499268 2.1466341019 74.855216980
 901.07000000 0.4108262956 0.0000409182 1.2133890390 66.750000000 146.30499268 2.1466341019 76.404296875
 901.14000000 0.4108262956 0.0000289421 1.2133890390 67.500000000 146.30499268 2.1446321011 77.953369141
 901.21000000 0.4167270958 0.0000289421 1.2133890390 67.500000000 146.30499268 2.1446321011 79.402503967
 901.28000000 0.4167270958 0.0000159681 1.2133890390 68.500000000 146.60519409 2.1226089001 80.851638794
 901.35000000 0.4226278961 0.0000159681 1.2133890390 68.500000000 146.60519409 2.1226089001 80.651756287
 901.42000000 0.4326291084 0.0000189621 1.2133890390 70.000000000 147.70610046 2.1236100197 80.451873779
 901.49000000 0.4326291084 0.0000189621 1.2133890390 70.000000000 147.70610046 2.1236100197 80.351928711
 901.56000000 0.4286285937 0.0000229541 1.1912419796 71.500000000 148.20649719 2.1336209774 80.251991272
 901.63000000 0.4286285937 0.0000229541 1.1912419796 71.500000000 148.20649719 2.1336209774 80.152046204
 901.70000000 0.4288285971 0.0000409182 1.1912419796 73.750000000 149.80769348 2.1506381035 80.351928711
 901.77000000 0.4288285971 0.0000409182 1.1912419796 73.750000000 149.80769348 2.1506381035 80.551818848
 901.84000000 0.4291285872 0.0000479042 1.1912419796 74.125000000 150.25810242 2.1626510620 81.001548767
 901.91000000 0.4294286966 0.0000479042 1.1912419796 74.125000000 150.25810242 2.1626510620 81.451278687
 901.98000000 0.4294286966 0.0000479042 1.1912419796 74.125000000 150.25810242 2.1626510620 81.950981140
 902.05000000 0.4214276969 0.0000618762 1.1803209782 75.500000000 151.00869751 2.1756639481 82.450683594
 902.12000000 0.4214276969 0.0000618762 1.1803209782 75.500000000 151.00869751 2.1756639481 82.300765991
 902.19000000 0.4230279028 0.0000578842 1.1803209782 76.125000000 151.00869751 2.1716599464 82.150848389
 902.26000000 0.4230279028 0.0000578842 1.1803209782 76.125000000 151.00869751 2.1716599464 80.801658630
 902.33000000 0.4396300018 0.0000698603 1.1912419796 76.000000000 151.00869751 2.1786670685 79.452468872
 902.40000000 0.4396300018 0.0000698603 1.1912419796 76.000000000 151.00869751 2.1786670685 78.852828979
 902.47000000 0.4436303973 0.0000459082 1.1803209782 76.375000000 151.40899658 2.1566441059 78.253189087
 902.54000000 0.4461308122 0.0000459082 1.1803209782 76.375000000 151.40899658 2.1566441059 77.653549194
 902.61000000 0.4461308122 0.0000359281 1.1803209782 76.250000000 150.60839844 2.1236100197 77.803459167
 902.68000000 0.4486311078 0.0000359281 1.1803209782 76.250000000 150.60839844 2.1236100197 77.953369141
 902.75000000 0.4486311078 0.0000319361 1.1803209782 76.500000000 150.80850220 2.1186048985 78.303161621
 902.82000000 0.4548318982 0.0000319361 1.1803209782 76.500000000 150.80850220 2.1186048985 78.652946472
 902.89000000 0.4548318982 0.0000319361 1.1803209782 76.500000000 150.80850220 2.1186048985 78.602981567
 902.96000000 0.4454306960 0.0000319361 1.1803209782 76.500000000 151.50909424 2.1196060181 78.553009033
 903.03000000 0.4214276969 0.0000319361 1.1803209782 76.500000000 151.50909424 2.1196060181 78.253189087
 903.10000000 0.4214276969 0.0000479042 1.1803209782 75.500000000 151.60920715 2.1216080189 77.953369141
 903.17000000 0.4175271988 0.0000479042 1.1803209782 75.500000000 151.60920715 2.1216080189 77.403694153
 903.24000000 0.4175271988 0.0000528942 1.1803209782 74.500000000 152.61000061 2.1366240978 76.854019165
 903.31000000 0.4136267006 0.0000528942 1.1803209782 74.500000000 152.61000061 2.1366240978 76.720771790
 903.38000000 0.4136267006 0.0000419162 1.1803209782 73.750000000 151.60920715 2.1286149025 76.587516785
 903.45000000 0.4166271091 0.0000419162 1.1803209782 73.750000000 151.60920715 2.1286149025 76.454269409
 903.52000000 0.4046255052 0.0000608782 1.1803209782 73.750000000 151.40899658 2.1396269798 75.854614258
 903.59000000 0.4046255052 0.0000608782 1.1803209782 73.750000000 151.40899658 2.1396269798 75.254966736
 903.66000000 0.3946242929 0.0000608782 1.1803209782 73.750000000 151.40899658 2.1396269798 75.454849243
 903.73000000 0.3946242929 0.0000479042 1.1912419796 74.125000000 150.30810547 2.1466341019 75.654739380
 903.80000000 0.4054256976 0.0000479042 1.1912419796 74.125000000 150.30810547 2.1466341019 76.204414368
 903.87000000 0.4054256976 0.0000798403 1.1912419796 73.750000000 150.55830383 2.1626510620 76.754089355
 903.94000000 0.4091261923 0.0000798403 1.1912419796 73.750000000 150.55830383 2.1626510620 77.403694153
 904.01000000 0.4091261923 0.0000888224 1.1912419796 73.250000000 150.15800476 2.1846730709 78.053298950
 904.08000000 0.4128265977 0.0000888224 1.1912419796 73.250000000 150.15800476 2.1846730709 78.153244019
 904.15000000 0.4140267968 0.0000499002 1.1912419796 72.875000000 150.20809937 2.1546421051 78.253189087
 904.22000000 0.4140267968 0.0000499002 1.1912419796 72.875000000 150.20809937 2.1546421051 78.119934082
 904.29000000 0.4128265977 0.0000419162 1.2022639513 72.500000000 150.30810547 2.1446321011 77.986671448
 904.36000000 0.4128265977 0.0000419162 1.2022639513 72.500000000 150.30810547 2.1446321011 77.853416443
 904.43000000 0.4164271057 0.0000299401 1.2022639513 73.250000000 150.30810547 2.1206068993 78.203216553
 904.50000000 0.4164271057 0.0000299401 1.2022639513 73.250000000 150.30810547 2.1206068993 78.553009033
 904.57000000 0.4228278995 0.0000299401 1.2022639513 73.250000000 150.30810547 2.1206068993 79.452468872
 904.64000000 0.4292286932 0.0000319361 1.1912419796 73.250000000 151.10879517 2.1196060181 80.351928711
 904.71000000 0.4292286932 0.0000319361 1.1912419796 73.250000000 151.10879517 2.1196060181 80.801658630
 904.78000000 0.4282284975 0.0000698603 1.1912419796 73.500000000 151.40899658 2.1306180954 81.251388550
 904.85000000 0.4282284975 0.0000698603 1.1912419796 73.500000000 151.40899658 2.1306180954 80.351928711
