# LAS format log file from PETREL
# Project units are specified as depth units
#==================================================================
~Version information
VERS.   2.0:
WRAP.   NO:
#==================================================================
~Well
STRT.m   215.0000                                  :START DEPTH    
STOP.m   3894.9700                                 :STOP DEPTH     
STEP.m   0.0700                                    :STEP           
NULL.    -999.25                                   :NULL VALUE     
COMP.    Shell BP Todd                             :COMPANY        
WELL.    Wainui-1                                  :WELL           
FLD .    N/A                                       :FIELD          
LOC .    LAT -38.4626847  LON 173.3085245          :LOCATION       
LATI.    -38.4626847                               :SURF. LATITUDE 
LONG.    173.3085245                               :SURF. LONGITUDE
EKB .m   11.300                                    :KB ELEVATION   
EGL .m   -153.700                                  :GROUND LEVEL   
CTRY.    New Zealand                               :COUNTRY        
SRVC.                                              :SERVICE COMPANY
DATE.    30-10-1981 (D-M-Y)                        :LOG DATE       
UWI .    GEO599                                    :UNIQUE WELL ID 
#==================================================================
~Curve
DEPT .m                   : DEPTH
CNL .m3/m3                : CNL
DRH .g/cm3                : DRH
ILD .ohm.m                : ILD
SP .mV                    : SP
BHC .us/ft                : BHC
FDC .g/cm3                : FDC
GRI .API                  : GRI
~Parameter
#==================================================================
~Ascii
# ...
 1551.7200000 0.3728216887 0.0000658683 0.7447319031 59.875000000 118.98339844 2.1236100197 65.260963440
 1551.7900000 0.3848231137 0.0000778443 0.7311391234 58.875000000 121.18520355 2.1306180954 65.710693359
 1551.8600000 0.3848231137 0.0000778443 0.7311391234 58.875000000 121.18520355 2.1306180954 66.160423279
 1551.9300000 0.3870233893 0.0000778443 0.7311391234 58.875000000 121.18520355 2.1306180954 65.710693359
 1552.0000000 0.3870233893 0.0000738523 0.7177942991 58.125000000 121.28520203 2.1306180954 65.260963440
 1552.0700000 0.3849231899 0.0000738523 0.7177942991 58.125000000 121.28520203 2.1306180954 65.260963440
 1552.1400000 0.3849231899 0.0000678643 0.7311391234 58.875000000 122.98660278 2.1396269798 65.260963440
 1552.2100000 0.3828229010 0.0000678643 0.7311391234 58.875000000 122.98660278 2.1396269798 64.811233521
 1552.2800000 0.3828229010 0.0000538922 0.7379041910 59.750000000 121.98580170 2.1276140213 64.361503601
 1552.3500000 0.3750219047 0.0000538922 0.7379041910 59.750000000 121.98580170 2.1276140213 63.928428650
 1552.4200000 0.3766221106 0.0000728543 0.7311391234 60.500000000 123.53700256 2.1406280994 63.495353699
 1552.4900000 0.3766221106 0.0000728543 0.7311391234 60.500000000 123.53700256 2.1406280994 63.062278748
 1552.5600000 0.3838230073 0.0001047904 0.7311391234 60.750000000 119.53379822 2.1466341019 62.612545013
 1552.6300000 0.3838230073 0.0001047904 0.7311391234 60.750000000 119.53379822 2.1466341019 62.162811279
 1552.7000000 0.3950243890 0.0001047904 0.7311391234 60.750000000 119.53379822 2.1466341019 62.662513733
 1552.7700000 0.3950243890 0.0001177645 0.7379041910 61.375000000 119.58390045 2.1836719513 63.162220001
 1552.8400000 0.3962245882 0.0001177645 0.7379041910 61.375000000 119.58390045 2.1836719513 63.611953735
 1552.9100000 0.3974246979 0.0001127745 0.7311391234 62.250000000 121.88569641 2.1686570644 64.061683655
 1552.9800000 0.3974246979 0.0001127745 0.7311391234 62.250000000 121.88569641 2.1686570644 64.211593628
 1553.0500000 0.4042254984 0.0000528942 0.7311391234 63.000000000 122.33609772 2.1366240978 64.361503601
 1553.1200000 0.4042254984 0.0000528942 0.7311391234 63.000000000 122.33609772 2.1366240978 64.611343384
 1553.1900000 0.4004249871 0.0000728543 0.7311391234 63.000000000 122.28600311 2.1115980148 64.861190796
 1553.2600000 0.4004249871 0.0000728543 0.7311391234 63.000000000 122.28600311 2.1115980148 64.894508362
 1553.3300000 0.4006251097 0.0001027944 0.7379041910 62.500000000 121.18520355 2.1286149025 64.927825928
 1553.4000000 0.4006251097 0.0001027944 0.7379041910 62.500000000 121.18520355 2.1286149025 64.961143494
 1553.4700000 0.4061258137 0.0000838323 0.7311391234 61.750000000 120.98500061 2.1005859375 64.561386108
 1553.5400000 0.4116264880 0.0000838323 0.7311391234 61.750000000 120.98500061 2.1005859375 64.161621094
 1553.6100000 0.4116264880 0.0000838323 0.7311391234 61.750000000 120.98500061 2.1005859375 64.661315918
 1553.6800000 0.4094262123 0.0000798403 0.7516229153 62.500000000 119.78399658 2.0835690498 65.161010742
 1553.7500000 0.4094262123 0.0000798403 0.7516229153 62.500000000 119.78399658 2.0835690498 65.410865784
 1553.8200000 0.4070259035 0.0000898204 0.7585775852 63.249996185 116.33129883 2.0985839367 65.660720825
 1553.8900000 0.4070259035 0.0000898204 0.7585775852 63.249996185 116.33129883 2.0985839367 65.560791016
 1553.9600000 0.4030253887 0.0000818363 0.7585775852 63.500003815 116.93180084 2.0985839367 65.460853577
 1554.0300000 0.4132266045 0.0000818363 0.7585775852 63.500003815 116.93180084 2.0985839367 65.161026001
 1554.1000000 0.4132266045 0.0000838323 0.7726805210 62.749996185 118.93340302 2.1356229782 64.861190796
 1554.1700000 0.4179272056 0.0000838323 0.7726805210 62.749996185 118.93340302 2.1356229782 65.427520752
 1554.2400000 0.4179272056 0.0000888224 0.7870457172 61.500000000 118.28289795 2.1396269798 65.993850708
 1554.3100000 0.4226278961 0.0000888224 0.7870457172 61.500000000 118.28289795 2.1396269798 66.560180664
 1554.3800000 0.4226278961 0.0001147704 0.8165823221 60.500000000 121.18520355 2.1516389847 66.909973145
 1554.4500000 0.4176271856 0.0001147704 0.8165823221 60.500000000 121.18520355 2.1516389847 67.259773254
 1554.5200000 0.4312289059 0.0001147704 0.8165823221 60.500000000 121.18520355 2.1516389847 66.860008240
 1554.5900000 0.4312289059 0.0001277445 0.8394598961 60.000000000 118.78320313 2.1556429863 66.460243225
 1554.6600000 0.4390299022 0.0001277445 0.8394598961 60.000000000 118.78320313 2.1556429863 65.910568237
 1554.7300000 0.4390299022 0.0001157685 0.8472272754 60.250000000 119.48380280 2.1526401043 65.360900879
 1554.8000000 0.4347293079 0.0001157685 0.8472272754 60.250000000 119.48380280 2.1526401043 65.810630798
 1554.8700000 0.4347293079 0.0001047904 0.8394598961 60.500000000 118.93340302 2.1286149025 66.260360718
 1554.9400000 0.4304288030 0.0001047904 0.8394598961 60.500000000 118.93340302 2.1286149025 65.960540771
 1555.0100000 0.4304288030 0.0000518962 0.8394598961 61.625000000 116.33129883 2.0865719318 65.660720825
 1555.0800000 0.4228278100 0.0000518962 0.8394598961 61.625000000 116.33129883 2.0865719318 65.360900879
 1555.1500000 0.4188274145 0.0000748503 0.8016781211 62.500000000 118.13269806 2.0755610466 65.111045837
 1555.2200000 0.4188274145 0.0000748503 0.8016781211 62.500000000 118.13269806 2.0755610466 64.861190796
 1555.2900000 0.4288285971 0.0001017964 0.8090959191 63.750000000 120.98500061 2.0915770531 65.161026001
 1555.3600000 0.4288285971 0.0001017964 0.8090959191 63.750000000 120.98500061 2.0915770531 65.460853577
 1555.4300000 0.4343293011 0.0001017964 0.8090959191 63.750000000 120.98500061 2.0915770531 65.210998535
 1555.5000000 0.4343293011 0.0001027944 0.7870457172 64.000000000 120.58470154 2.1045899391 64.961143494
 1555.5700000 0.4398300052 0.0001027944 0.7870457172 64.000000000 120.58470154 2.1045899391 63.611953735
 1555.6400000 0.4324289858 0.0000508982 0.7726805210 64.500000000 119.18360138 2.0425260067 62.262760162
 1555.7100000 0.4324289858 0.0000508982 0.7726805210 64.500000000 119.18360138 2.0425260067 62.512611389
 1555.7800000 0.4014252126 0.0000109780 0.7798300982 64.000000000 117.28209686 2.0034859180 62.762458801
 1555.8500000 0.4014252126 0.0000109780 0.7798300982 64.000000000 117.28209686 2.0034859180 63.328784943
 1555.9200000 0.3638204932 0.0000249501 0.7585775852 63.249996185 119.38369751 2.0375208855 63.895114899
 1555.9900000 0.3638204932 0.0000249501 0.7585775852 63.249996185 119.38369751 2.0375208855 64.461441040
 1556.0600000 0.3776221871 0.0000638722 0.7447319031 62.625000000 121.08509827 2.0895750523 64.211593628
 1556.1300000 0.3836229146 0.0000638722 0.7447319031 62.625000000 121.08509827 2.0895750523 63.961738586
 1556.2000000 0.3836229146 0.0001177645 0.7447319031 61.500000000 121.73560333 2.1396269798 63.262161255
 1556.2700000 0.3896237016 0.0001177645 0.7447319031 61.500000000 121.73560333 2.1396269798 62.562580109
 1556.3400000 0.3896237016 0.0001177645 0.7447319031 61.500000000 121.73560333 2.1396269798 63.412063599
 1556.4100000 0.3824228048 0.0001237525 0.7447319031 61.250000000 119.88410187 2.1436309814 64.261550903
 1556.4800000 0.3824228048 0.0001237525 0.7447319031 61.250000000 119.88410187 2.1436309814 64.161621094
 1556.5500000 0.3932242095 0.0000538922 0.7585775852 61.500000000 120.38449860 2.1306180954 64.061683655
 1556.6200000 0.3932242095 0.0000538922 0.7585775852 61.500000000 120.38449860 2.1306180954 64.261566162
 1556.6900000 0.3974246979 0.0000419162 0.7726805210 60.750000000 122.98660278 2.1556429863 64.461441040
 1556.7600000 0.3979248106 0.0000419162 0.7726805210 60.750000000 122.98660278 2.1556429863 64.961143494
 1556.8300000 0.3979248106 0.0000299401 0.7870457172 60.500000000 118.08270264 2.1306180954 65.460838318
 1556.9000000 0.3984248042 0.0000299401 0.7870457172 60.500000000 118.08270264 2.1306180954 65.960540771
 1556.9700000 0.3984248042 0.0000279441 0.7726805210 59.250000000 119.33370209 2.1366240978 65.460845947
 1557.0400000 0.3894236982 0.0000279441 0.7726805210 59.250000000 119.33370209 2.1366240978 64.961143494
