# LAS format log file from PETREL
# Project units are specified as depth units
#==================================================================
~Version information
VERS.   2.0:
WRAP.   NO:
#==================================================================
~Well
STRT.m   215.0000                                  :START DEPTH    
STOP.m   3894.9700                                 :STOP DEPTH     
STEP.m   0.0700                                    :STEP           
NULL.    -999.25                                   :NULL VALUE     
COMP.    Shell BP Todd                             :COMPANY        
WELL.    Wainui-1                                  :WELL           
FLD .    N/A                                       :FIELD          
LOC .    LAT -38.4626847  LON 173.3085245          :LOCATION       
LATI.    -38.4626847                               :SURF. LATITUDE 
LONG.    173.3085245                               :SURF. LONGITUDE
EKB .m   11.300                                    :KB ELEVATION   
EGL .m   -153.700                                  :GROUND LEVEL   
CTRY.    New Zealand                               :COUNTRY        
SRVC.                                              :SERVICE COMPANY
DATE.    30-10-1981 (D-M-Y)                        :LOG DATE       
UWI .    GEO599                                    :UNIQUE WELL ID 
#==================================================================
~Curve
DEPT .m                   : DEPTH
CNL .m3/m3                : CNL
DRH .g/cm3                : DRH
ILD .ohm.m                : ILD
SP .mV                    : SP
BHC .us/ft                : BHC
FDC .g/cm3                : FDC
GRI .API                  : GRI
~Parameter
#==================================================================
~Ascii
# ...
 462.94000000  -999.250000  -999.250000  -999.250000  -999.250000  -999.250000  -999.250000  -999.250000
 463.01000000  -999.250000  -999.250000  -999.250000  -999.250000  -999.250000  -999.250000  -999.250000
 463.08000000  -999.250000  -999.250000  -999.250000  -999.250000  -999.250000  -999.250000  -999.250000
 463.15000000  -999.250000  -999.250000  -999.250000  -999.250000  -999.250000  -999.250000  -999.250000
 463.22000000  -999.250000  -999.250000  -999.250000  -999.250000  -999.250000  -999.250000  -999.250000
 463.29000000  -999.250000  -999.250000  -999.250000  -999.250000  -999.250000  -999.250000  -999.250000
 463.36000000  -999.250000  -999.250000  -999.250000  -999.250000  -999.250000  -999.250000  -999.250000
 463.43000000  -999.250000  -999.250000  -999.250000  -999.250000  -999.250000  -999.250000  -999.250000
 463.50000000  -999.250000  -999.250000  -999.250000  -999.250000  -999.250000  -999.250000  -999.250000
 463.57000000  -999.250000  -999.250000  -999.250000  -999.250000  -999.250000  -999.250000  -999.250000
 463.64000000  -999.250000  -999.250000  -999.250000  -999.250000  -999.250000  -999.250000  -999.250000
 463.71000000  -999.250000  -999.250000  -999.250000  -999.250000  -999.250000  -999.250000  -999.250000
 463.78000000  -999.250000  -999.250000  -999.250000  -999.250000  -999.250000  -999.250000  -999.250000
 463.85000000  -999.250000  -999.250000  -999.250000  -999.250000  -999.250000  -999.250000  -999.250000
 463.92000000  -999.250000  -999.250000  -999.250000  -999.250000  -999.250000  -999.250000  -999.250000
 463.99000000 0.5634453893 -0.000015968 5.3951058388 37.125000000 68.943908691 2.1856749058 38.676860809
 464.06000000 0.5634453893 -0.000015968 5.3951058388 37.125000000 68.943908691 2.1856749058 38.027252197
 464.13000000 0.5766471028 0.0000319361 3.3113110065 38.375000000 81.904129028 1.9033819437 37.377639771
 464.20000000 0.5792474151 0.0000319361 3.3113110065 38.375000000 81.904129028 1.9033819437 37.377639771
 464.27000000 0.5792474151 0.0000099800 2.3550488949 37.750000000 97.716613770 1.7522259951 37.377639771
 464.34000000 0.5762470961 0.0000099800 2.3550488949 37.750000000 97.716613770 1.7522259951 37.011192322
 464.41000000 0.5762470961 0.0000109780 2.1478300095 38.125000000 103.52120209 1.7492229939 36.644748688
 464.48000000 0.5732467175 0.0000109780 2.1478300095 38.125000000 103.52120209 1.7492229939 36.278301239
 464.55000000 0.5732467175 0.0000109780 2.2908680439 39.125000000 107.47429657 1.7502239943 35.528751373
 464.62000000 0.5758470297 0.0000109780 2.2908680439 39.125000000 107.47429657 1.7502239943 34.779201508
 464.69000000 0.5708463788 0.0000099800 1.8879909515 39.250000000 120.38449860 1.7392120361 35.228931427
 464.76000000 0.5708463788 0.0000099800 1.8879909515 39.250000000 120.38449860 1.7392120361 35.678661346
 464.83000000 0.5798475146 0.0000099800 1.8879909515 39.250000000 120.38449860 1.7392120361 35.378841400
 464.90000000 0.5798475146 0.0000149701 1.3061709404 39.875000000 121.18520355 1.7422150373 35.079021454
 464.97000000 0.5726466179 0.0000149701 1.3061709404 39.875000000 121.18520355 1.7422150373 34.879135132
 465.04000000 0.5726466179 0.0000129741 1.1376270056 40.250000000 121.08509827 1.7622359991 34.679248810
 465.11000000 0.5654457211 0.0000129741 1.1376270056 40.250000000 121.08509827 1.7622359991 35.128978729
 465.18000000 0.5660458207 0.0000119760 0.9289664030 40.125000000 118.73320007 1.7912659645 35.578708649
 465.25000000 0.5660458207 0.0000119760 0.9289664030 40.125000000 118.73320007 1.7912659645 35.312206268
 465.32000000 0.5366421938 0.0000109780 0.9638289809 38.375000000 122.33609772 1.8102860451 35.045703888
 465.39000000 0.5366421938 0.0000109780 0.9638289809 38.375000000 122.33609772 1.8102860451 34.779201508
 465.46000000 0.5588448048 0.0000189621 1.0280159712 41.125000000 123.93730164 1.8202960491 34.729225159
 465.53000000 0.5588448048 0.0000189621 1.0280159712 41.125000000 123.93730164 1.8202960491 34.679248810
 465.60000000 0.5606451035 0.0000159681 1.0764650106 44.250000000 122.73639679 1.8232990503 34.279487610
 465.67000000 0.5606451035 0.0000159681 1.0764650106 44.250000000 122.73639679 1.8232990503 33.879730225
 465.74000000 0.5563445091 0.0000159681 1.0764650106 44.250000000 122.73639679 1.8232990503 34.279487610
 465.81000000 0.5520439744 0.0000139720 1.0185910463 44.375000000 118.28289795 1.8122880459 34.679248810
 465.88000000 0.5520439744 0.0000139720 1.0185910463 44.375000000 118.28289795 1.8122880459 35.029045105
 465.95000000 0.5438429713 0.0000059880 1.0000000000 43.750000000 115.18039703 1.8102860451 35.378841400
 466.02000000 0.5438429713 0.0000059880 1.0000000000 43.750000000 115.18039703 1.8102860451 36.278301239
 466.09000000 0.5408427119 0.0000089820 1.0000000000 42.875000000 113.32890320 1.8012759686 37.177761078
 466.16000000 0.5408427119 0.0000089820 1.0000000000 42.875000000 113.32890320 1.8012759686 37.377639771
 466.23000000 0.5248405933 0.0000159681 1.0000000000 42.125000000 116.18119812 1.8042800426 37.577522278
 466.30000000 0.5296412110 0.0000159681 1.0000000000 42.125000000 116.18119812 1.8042800426 37.777400970
 466.37000000 0.5296412110 0.0000089820 1.0000000000 41.250000000 118.58309937 1.7992739677 37.777400970
 466.44000000 0.5344418287 0.0000089820 1.0000000000 41.250000000 118.58309937 1.7992739677 37.777400970
 466.51000000 0.5344418287 0.0000029940 1.0000000000 40.500000000 118.53309631 1.7792539597 37.877342224
 466.58000000 0.5520439744 0.0000029940 1.0000000000 40.500000000 118.53309631 1.7792539597 37.977279663
 466.65000000 0.5520439744 0.0000029940 1.0000000000 40.500000000 118.53309631 1.7792539597 38.027252197
 466.72000000 0.5572445989 0.0000000000 1.0000000000 39.625000000 119.38369751 1.7602339983 38.077220917
 466.79000000 0.5668458939 0.0000000000 1.0000000000 39.625000000 119.38369751 1.7602339983 38.077220917
 466.86000000 0.5668458939 -0.000001996 1.0000000000 40.375000000 120.68479919 1.7422150373 38.077220917
 466.93000000 0.5533441901 -0.000001996 1.0000000000 40.375000000 120.68479919 1.7422150373 38.476982117
 467.00000000 0.5533441901 0.0000019960 1.0092530251 41.125000000 120.68479919 1.7352080345 38.876739502
 467.07000000 0.5398424864 0.0000019960 1.0092530251 41.125000000 120.68479919 1.7352080345 39.343128204
 467.14000000 0.5398424864 -0.000007984 1.0092530251 42.375000000 121.43530273 1.7151869535 39.809520721
 467.21000000 0.5598449707 -0.000007984 1.0092530251 42.375000000 121.43530273 1.7151869535 40.275909424
 467.28000000 0.5598449707 -0.000008982 1.0000000000 43.625000000 121.88569641 1.6821529865 40.275909424
 467.35000000 0.5622453094 -0.000008982 1.0000000000 43.625000000 121.88569641 1.6821529865 40.275909424
 467.42000000 0.5172396898 -0.000003992 1.0000000000 44.125000000 122.78639984 1.6351039410 40.275909424
 467.49000000 0.5172396898 -0.000003992 1.0000000000 44.125000000 122.78639984 1.6351039410 40.275909424
 467.56000000 0.5092387199 -0.000003992 1.0000000000 44.125000000 122.78639984 1.6351039410 40.175971985
 467.63000000 0.5092387199 -0.000001996 1.0000000000 44.625000000 121.93569946 1.5570240021 40.076030731
 467.70000000 0.5098388195 -0.000001996 1.0000000000 44.625000000 121.93569946 1.5570240021 39.776210785
 467.77000000 0.5098388195 0.0000099800 1.0000000000 45.250000000 127.79039764 1.4779419899 39.476390839
 467.84000000 0.5104387999 0.0000099800 1.0000000000 45.250000000 127.79039764 1.4779419899 40.076030731
 467.91000000 0.5222402811 0.0000019960 1.0000000000 46.125000000 162.86799622 1.4429049492 40.675670624
 467.98000000 0.5222402811 0.0000019960 1.0000000000 46.125000000 162.86799622 1.4429049492 40.875549316
 468.05000000 0.5190399289 0.0000019960 1.0185910463 47.125000000 169.52330017 1.4389009476 41.075431824
 468.12000000 0.5190399289 0.0000019960 1.0185910463 47.125000000 169.52330017 1.4389009476 41.275310516
 468.19000000 0.5110388994 0.0000039920 1.0280159712 48.125000000 188.63839722 1.4419039488 41.325279236
 468.26000000 0.5110388994 0.0000039920 1.0280159712 48.125000000 188.63839722 1.4419039488 41.375251770
