# LAS format log file from PETREL
# Project units are specified as depth units
#==================================================================
~Version information
VERS.   2.0:
WRAP.   NO:
#==================================================================
~Well
STRT.m   215.0000                                  :START DEPTH    
STOP.m   3894.9700                                 :STOP DEPTH     
STEP.m   0.0700                                    :STEP           
NULL.    -999.25                                   :NULL VALUE     
COMP.    Shell BP Todd                             :COMPANY        
WELL.    Wainui-1                                  :WELL           
FLD .    N/A                                       :FIELD          
LOC .    LAT -38.4626847  LON 173.3085245          :LOCATION       
LATI.    -38.4626847                               :SURF. LATITUDE 
LONG.    173.3085245                               :SURF. LONGITUDE
EKB .m   11.300                                    :KB ELEVATION   
EGL .m   -153.700                                  :GROUND LEVEL   
CTRY.    New Zealand                               :COUNTRY        
SRVC.                                              :SERVICE COMPANY
DATE.    30-10-1981 (D-M-Y)                        :LOG DATE       
UWI .    GEO599                                    :UNIQUE WELL ID 
#==================================================================
~Curve
DEPT .m                   : DEPTH
CNL .m3/m3                : CNL
DRH .g/cm3                : DRH
ILD .ohm.m                : ILD
SP .mV                    : SP
BHC .us/ft                : BHC
FDC .g/cm3                : FDC
GRI .API                  : GRI
~Parameter
#==================================================================
~Ascii
# ...
 1336.1200000 0.3786224127 0.0000608782 1.2022639513 84.375000000 130.39239502 2.1996889114 81.318016052
 1336.1900000 0.3822228014 0.0000608782 1.2022639513 84.375000000 130.39239502 2.1996889114 81.251388550
 1336.2600000 0.3822228014 0.0000668663 1.2022639513 83.500000000 129.34159851 2.2107009888 80.851631165
 1336.3300000 0.3872233927 0.0000668663 1.2022639513 83.500000000 129.34159851 2.2107009888 80.451873779
 1336.4000000 0.3872233927 0.0000668663 1.2022639513 83.500000000 129.34159851 2.2107009888 80.701721191
 1336.4700000 0.4004249871 0.0000538922 1.1912419796 83.000000000 128.59100342 2.1876759529 80.951568604
 1336.5400000 0.4102262855 0.0000538922 1.1912419796 83.000000000 128.59100342 2.1876759529 81.151451111
 1336.6100000 0.4102262855 0.0000259481 1.1912419796 81.750000000 126.73950195 2.1726610661 81.351333618
 1336.6800000 0.4037255049 0.0000259481 1.1912419796 81.750000000 126.73950195 2.1726610661 81.551216125
 1336.7500000 0.4037255049 0.0000289421 1.1803209782 81.500000000 125.98889923 2.1806690693 81.751098633
 1336.8200000 0.3972246945 0.0000289421 1.1803209782 81.500000000 125.98889923 2.1806690693 81.318023682
 1336.8900000 0.3972246945 0.0000409182 1.1803209782 81.500000000 126.88960266 2.1876759529 80.884948730
 1336.9600000 0.3968245983 0.0000409182 1.1803209782 81.500000000 126.88960266 2.1876759529 80.451873779
 1337.0300000 0.3962244987 0.0000538922 1.1694990396 81.500000000 127.54019928 2.1916809082 80.551811218
 1337.1000000 0.3962244987 0.0000538922 1.1694990396 81.500000000 127.54019928 2.1916809082 80.651748657
 1337.1700000 0.4002251029 0.0000798403 1.1694990396 81.500000000 128.94129944 2.2107009888 80.351928711
 1337.2400000 0.4002251029 0.0000798403 1.1694990396 81.500000000 128.94129944 2.2107009888 80.052108765
 1337.3100000 0.3990249038 0.0000798403 1.1694990396 81.500000000 128.94129944 2.2107009888 80.751693726
 1337.3800000 0.3990249038 0.0000748503 1.1694990396 81.500000000 129.79190063 2.1956849098 81.451278687
 1337.4500000 0.4021252990 0.0000748503 1.1694990396 81.500000000 129.79190063 2.1956849098 81.651153564
 1337.5200000 0.4052256942 0.0000698603 1.1694990396 81.375000000 129.89199829 2.1866760254 81.851028442
 1337.5900000 0.4052256942 0.0000698603 1.1694990396 81.375000000 129.89199829 2.1866760254 81.401298523
 1337.6600000 0.4098261893 0.0000518962 1.1694990396 80.375000000 130.29229736 2.1636509895 80.951568604
 1337.7300000 0.4098261893 0.0000518962 1.1694990396 80.375000000 130.29229736 2.1636509895 80.818321228
 1337.8000000 0.4176271856 0.0000379241 1.1587769985 78.500000000 129.79190063 2.1626510620 80.685066223
 1337.8700000 0.4176271856 0.0000379241 1.1587769985 78.500000000 129.79190063 2.1626510620 80.551818848
 1337.9400000 0.4100261927 0.0000299401 1.1587769985 78.000000000 130.09219360 2.1646530628 80.501846313
 1338.0100000 0.4100261927 0.0000299401 1.1587769985 78.000000000 130.09219360 2.1646530628 80.451873779
 1338.0800000 0.4041255116 0.0000319361 1.1694990396 78.875000000 130.09219360 2.1796679497 80.251991272
 1338.1500000 0.3982248008 0.0000319361 1.1694990396 78.875000000 130.09219360 2.1796679497 80.052108765
 1338.2200000 0.3982248008 0.0000319361 1.1694990396 78.875000000 130.09219360 2.1796679497 79.502441406
 1338.2900000 0.3982248008 0.0000449102 1.1694990396 80.000000000 128.99130249 2.1976869106 78.952766418
 1338.3600000 0.3982248008 0.0000449102 1.1694990396 80.000000000 128.99130249 2.1976869106 78.602981567
 1338.4300000 0.3862232864 0.0000518962 1.1694990396 81.000000000 123.38690186 2.2026920319 78.253189087
 1338.5000000 0.3862232864 0.0000518962 1.1694990396 81.000000000 123.38690186 2.2026920319 78.503036499
 1338.5700000 0.3840231001 0.0000508982 1.1694990396 81.750000000 124.28759766 2.2076969147 78.752876282
 1338.6400000 0.3840231001 0.0000508982 1.1694990396 81.750000000 124.28759766 2.2076969147 79.052696228
 1338.7100000 0.3840231001 0.0000349301 1.1694990396 82.500000000 123.48699951 2.2036929131 79.352523804
 1338.7800000 0.3840231001 0.0000349301 1.1694990396 82.500000000 123.48699951 2.2036929131 79.652343750
 1338.8500000 0.3840231001 0.0000289421 1.1694990396 82.500000000 128.09060669 2.1986880302 79.452468872
 1338.9200000 0.3862232864 0.0000289421 1.1694990396 82.500000000 128.09060669 2.1986880302 79.252586365
 1338.9900000 0.3862232864 0.0000409182 1.1694990396 82.375000000 128.14059448 2.2076969147 79.002731323
 1339.0600000 0.4110263884 0.0000409182 1.1694990396 82.375000000 128.14059448 2.2076969147 78.752876282
 1339.1300000 0.4218277931 0.0000409182 1.1694990396 82.375000000 128.14059448 2.2076969147 77.953353882
 1339.2000000 0.4218277931 0.0000578842 1.1694990396 82.375000000 128.34080505 2.2167069912 77.153839111
 1339.2700000 0.4100261927 0.0000578842 1.1694990396 82.375000000 128.34080505 2.2167069912 76.104469299
 1339.3400000 0.4100261927 0.0000459082 1.1694990396 82.000000000 128.09060669 2.2026920319 75.055099487
 1339.4100000 0.4021252096 0.0000459082 1.1694990396 82.000000000 128.09060669 2.2026920319 73.805847168
 1339.4800000 0.4021252096 0.0000608782 1.1694990396 80.750000000 128.14059448 2.1906800270 72.556587219
 1339.5500000 0.3942242861 0.0000608782 1.1694990396 80.750000000 128.14059448 2.1906800270 71.990257263
 1339.6200000 0.3942242861 0.0000828343 1.1694990396 77.000000000 126.18910217 2.1986880302 71.423927307
 1339.6900000 0.3944242895 0.0000828343 1.1694990396 77.000000000 126.18910217 2.1986880302 70.857597351
 1339.7600000 0.3888235986 0.0001237525 1.1694990396 73.500000000 127.08979797 2.2117009163 71.657119751
 1339.8300000 0.3888235986 0.0001237525 1.1694990396 73.500000000 127.08979797 2.2117009163 72.456649780
 1339.9000000 0.3972246945 0.0000888224 1.1694990396 69.500000000 126.58940125 2.2086980343 73.755874634
 1339.9700000 0.3972246945 0.0000888224 1.1694990396 69.500000000 126.58940125 2.2086980343 75.055099487
 1340.0400000 0.3964245915 0.0000888224 1.1694990396 69.500000000 126.58940125 2.2086980343 74.705307007
 1340.1100000 0.3964245915 0.0000748503 1.1694990396 65.000000000 122.58630371 2.1876759529 74.355506897
 1340.1800000 0.3956244886 0.0000748503 1.1694990396 65.000000000 122.58630371 2.1876759529 73.356109619
 1340.2500000 0.3838230073 0.0000538922 1.1481540203 62.500000000 126.13909912 2.1806690693 72.356719971
 1340.3200000 0.3838230073 0.0000538922 1.1481540203 62.500000000 126.13909912 2.1806690693 71.207405090
 1340.3900000 0.3896237016 0.0000558882 1.1066240072 61.500000000 127.18990326 2.1716599464 70.058090210
 1340.4600000 0.3896237016 0.0000558882 1.1066240072 61.500000000 127.18990326 2.1716599464 69.558387756
 1340.5300000 0.4118264914 0.0000698603 1.0864260197 62.749996185 127.29000092 2.1706590652 69.058692932
 1340.6000000 0.4118264914 0.0000698603 1.0864260197 62.749996185 127.29000092 2.1706590652 68.558990479
 1340.6700000 0.4214276969 0.0001087824 1.0568180084 64.750000000 127.89040375 2.1956849098 67.759475708
 1340.7400000 0.4214276969 0.0001087824 1.0568180084 64.750000000 127.89040375 2.1956849098 66.959953308
 1340.8100000 0.4157269895 0.0001087824 1.0568180084 64.750000000 127.89040375 2.1956849098 66.060485840
 1340.8800000 0.4100261927 0.0001367266 1.0471279621 66.000000000 130.39239502 2.2066960335 65.161010742
 1340.9500000 0.4100261927 0.0001367266 1.0471279621 66.000000000 130.39239502 2.2066960335 66.210388184
 1341.0200000 0.4096261859 0.0000748503 1.0471279621 67.750000000 129.94200134 2.1966860294 67.259773254
 1341.0900000 0.4096261859 0.0000748503 1.0471279621 67.750000000 129.94200134 2.1966860294 68.708908081
 1341.1600000 0.4124265909 0.0000439122 1.0280159712 69.750000000 125.78880310 2.1996889114 70.158042908
 1341.2300000 0.4124265909 0.0000439122 1.0280159712 69.750000000 125.78880310 2.1996889114 71.007522583
 1341.3000000 0.4128265977 0.0000379241 1.0471279621 71.750000000 123.38690186 2.1966860294 71.857009888
 1341.3700000 0.4083260894 0.0000379241 1.0471279621 71.750000000 123.38690186 2.1966860294 71.857009888
 1341.4400000 0.4083260894 0.0000499002 1.0665960312 74.250000000 126.58940125 2.2076969147 71.857009888
