# LAS format log file from PETREL
# Project units are specified as depth units
#==================================================================
~Version information
VERS.   2.0:
WRAP.   NO:
#==================================================================
~Well
STRT.m   215.0000                                  :START DEPTH    
STOP.m   3894.9700                                 :STOP DEPTH     
STEP.m   0.0700                                    :STEP           
NULL.    -999.25                                   :NULL VALUE     
COMP.    Shell BP Todd                             :COMPANY        
WELL.    Wainui-1                                  :WELL           
FLD .    N/A                                       :FIELD          
LOC .    LAT -38.4626847  LON 173.3085245          :LOCATION       
LATI.    -38.4626847                               :SURF. LATITUDE 
LONG.    173.3085245                               :SURF. LONGITUDE
EKB .m   11.300                                    :KB ELEVATION   
EGL .m   -153.700                                  :GROUND LEVEL   
CTRY.    New Zealand                               :COUNTRY        
SRVC.                                              :SERVICE COMPANY
DATE.    30-10-1981 (D-M-Y)                        :LOG DATE       
UWI .    GEO599                                    :UNIQUE WELL ID 
#==================================================================
~Curve
DEPT .m                   : DEPTH
CNL .m3/m3                : CNL
DRH .g/cm3                : DRH
ILD .ohm.m                : ILD
SP .mV                    : SP
BHC .us/ft                : BHC
FDC .g/cm3                : FDC
GRI .API                  : GRI
~Parameter
#==================================================================
~Ascii
# ...
 3675.3800000 0.3438158929 0.0000306288 2.3334579468 78.813430786 81.723793030 2.4360439777 69.178863525
 3675.4500000 0.3342154920 0.0000306288 2.3334579468 78.813430786 81.723793030 2.4360439777 69.678710938
 3675.5200000 0.3342154920 0.0000306288 2.3334579468 78.813430786 81.723793030 2.4360439777 70.178558350
 3675.5900000 0.3343155086 0.0000266312 2.3550488949 79.182830811 83.824836731 2.4650239944 71.128265381
 3675.6600000 0.3343155086 0.0000266312 2.3550488949 79.182830811 83.824836731 2.4650239944 72.077972412
 3675.7300000 0.3344154060 0.0000166371 2.3550488949 79.059692383 83.524696350 2.4770150185 72.227920532
 3675.8000000 0.3092142940 0.0000166371 2.3550488949 79.059692383 83.524696350 2.4770150185 72.377876282
 3675.8700000 0.3092142940 0.0000026455 2.3120648861 78.813430786 84.825363159 2.5009989738 71.578125000
 3675.9400000 0.2832131088 0.0000026455 2.3120648861 78.813430786 84.825363159 2.5009989738 70.778373718
 3676.0100000 0.2832131088 -0.000009347 2.2908680439 77.828346252 82.524192810 2.5219850540 68.679016113
 3676.0800000 0.2568118870 -0.000009347 2.2908680439 77.828346252 82.524192810 2.5219850540 66.579650879
 3676.1500000 0.2568118870 0.0000076425 2.2908680439 78.074630737 82.774322510 2.5079948902 66.046485901
 3676.2200000 0.2620120943 0.0000076425 2.2908680439 78.074630737 82.774322510 2.5079948902 65.513313293
 3676.2900000 0.2668122947 0.0000076425 2.2908680439 78.074630737 82.774322510 2.5079948902 64.980148315
 3676.3600000 0.2668122947 0.0000006466 2.2908680439 78.813430786 81.623733521 2.4920051098 64.880172729
 3676.4300000 0.2716124952 0.0000006466 2.2908680439 78.813430786 81.623733521 2.4920051098 64.780197144
 3676.5000000 0.2716124952 -0.000004350 2.3120648861 79.305969238 79.622726440 2.4840109348 64.630249023
 3676.5700000 0.2752127051 -0.000004350 2.3120648861 79.305969238 79.622726440 2.4840109348 64.480300903
 3676.6400000 0.2752127051 -0.000013345 2.2908680439 80.044769287 80.223022461 2.4760169983 64.880172729
 3676.7100000 0.2852132022 -0.000013345 2.2908680439 80.044769287 80.223022461 2.4760169983 65.280036926
 3676.7800000 0.2982138097 -0.000010347 2.3120648861 79.798507690 82.274063110 2.4660229683 65.380020142
 3676.8500000 0.2982138097 -0.000010347 2.3120648861 79.798507690 82.274063110 2.4660229683 65.480003357
 3676.9200000 0.3042140901 -0.000003351 2.3334579468 79.552230835 83.424652100 2.4740180969 65.380020142
 3676.9900000 0.3042140901 -0.000003351 2.3334579468 79.552230835 83.424652100 2.4740180969 65.280036926
 3677.0600000 0.3102143109 -0.000003351 2.2908680439 79.552230835 82.824340820 2.4730179310 65.946502686
 3677.1300000 0.3102143109 -0.000003351 2.2908680439 79.552230835 82.824340820 2.4730179310 66.612960815
 3677.2000000 0.3160145879 -0.000003351 2.2908680439 79.552230835 82.824340820 2.4730179310 67.279426575
 3677.2700000 0.3160145879  -999.250000  -999.250000  -999.250000  -999.250000  -999.250000  -999.250000
 3677.3400000  -999.250000  -999.250000  -999.250000  -999.250000  -999.250000  -999.250000  -999.250000
 3677.4100000 0.3342154920 -0.000009347 2.2284350395 79.059692383 83.724792480 2.4610269070  -999.250000
 3677.4800000 0.3342154920 -0.000009347 2.2284350395 79.059692383 83.724792480 2.4610269070 69.278816223
 3677.5500000 0.3390156925 -0.000017343 2.3550488949 78.320892334 82.724288940 2.4440379143 70.078582764
 3677.6200000 0.3390156925 -0.000017343 2.3550488949 78.320892334 82.724288940 2.4440379143 70.878341675
 3677.6900000 0.3418157995 -0.000003351 2.4888570309 77.828346252 82.224037170 2.4080629349 71.078277588
 3677.7600000 0.3418157995 -0.000003351 2.4888570309 77.828346252 82.224037170 2.4080629349 71.278213501
 3677.8300000 0.3446159065 0.0000146383 2.4888570309 78.074630737 81.023422241 2.3321149349 70.478462219
 3677.9000000 0.3432159126 0.0000146383 2.4888570309 78.074630737 81.023422241 2.3321149349 69.678710938
 3677.9700000 0.3432159126 -0.000005350 2.4888570309 78.813430786 73.669708252 2.3141269684 69.445442200
 3678.0400000 0.3200148046 -0.000005350 2.4888570309 78.813430786 73.669708252 2.3141269684 69.212181091
 3678.1100000 0.3200148046 -0.000005350 2.4888570309 78.813430786 73.669708252 2.3141269684 68.978912354
 3678.1800000 0.3030140102 -0.000026337 2.4888570309 78.320892334 74.570159912 2.3680899143 69.228836060
 3678.2500000 0.3030140102 -0.000026337 2.4888570309 78.320892334 74.570159912 2.3680899143 69.478759766
 3678.3200000 0.3019138873 -0.000023339 2.5118858814 78.074630737 77.571693420 2.4020669460 70.228530884
 3678.3900000 0.3008139133 -0.000023339 2.5118858814 78.074630737 77.571693420 2.4020669460 70.978302002
 3678.4600000 0.3008139133 -0.000013345 2.5118858814 78.074630737 79.272537231 2.4210538864 70.828353882
 3678.5300000 0.2912135124 -0.000013345 2.5118858814 78.074630737 79.272537231 2.4210538864 70.678413391
 3678.6000000 0.2912135124 -0.000014344 2.4888570309 78.567146301 82.174011230 2.4660229683 70.178558350
 3678.6700000 0.2838130891 -0.000014344 2.4888570309 78.567146301 82.174011230 2.4660229683 69.678710938
 3678.7400000 0.2838130891 -0.000018342 2.4888570309 79.059692383 83.224548340 2.5129909515 69.278823853
 3678.8100000 0.2762128115 -0.000018342 2.4888570309 79.059692383 83.224548340 2.5129909515 68.878944397
 3678.8800000 0.2762128115 -0.000015344 2.5585858822 79.305969238 80.273063660 2.5619568825 68.479057312
 3678.9500000 0.2704125047 -0.000015344 2.5585858822 79.305969238 80.273063660 2.5619568825 68.579040527
 3679.0200000 0.2700124979 -0.000015344 2.5585858822 79.305969238 80.273063660 2.5619568825 68.679023743
 3679.0900000 0.2700124979 -0.000020341 2.7039589882 79.552230835 81.173507690 2.5759480000 68.179168701
 3679.1600000 0.2696124911 -0.000020341 2.7039589882 79.552230835 81.173507690 2.5759480000 67.679321289
 3679.2300000 0.2696124911 -0.000020341 2.7797141075 79.552230835 79.422622681 2.5719499588 68.529060364
 3679.3000000 0.2704125047 -0.000020341 2.7797141075 79.552230835 79.422622681 2.5719499588 69.378799438
 3679.3700000 0.2704125047 -0.000009347 2.7542290688 78.813430786 79.222518921 2.5879399776 69.528755188
 3679.4400000 0.2644121945 -0.000009347 2.7542290688 78.813430786 79.222518921 2.5879399776 69.678710938
 3679.5100000 0.2622120976 -0.000004350 2.7039589882 78.813430786 78.772293091 2.5889389515 68.878952026
 3679.5800000 0.2622120976 -0.000004350 2.7039589882 78.813430786 78.772293091 2.5889389515 68.079193115
 3679.6500000 0.2624121904 -0.000004350 2.6791689396 79.182830811 77.421600342 2.5859410763 67.979225159
 3679.7200000 0.2624121904 -0.000004350 2.6791689396 79.182830811 77.421600342 2.5859410763 67.879249573
 3679.7900000 0.2626121938 -0.000006349 2.5585858822 78.813430786 78.422096252 2.5619568825 67.779281616
 3679.8600000 0.2626121938 -0.000006349 2.5585858822 78.813430786 78.422096252 2.5619568825 67.129486084
 3679.9300000 0.2612121105 -0.000006349 2.5585858822 78.813430786 78.422096252 2.5619568825 66.479690552
 3680.0000000 0.2612121105 -0.000005350 2.4210290909 78.813430786 80.022918701 2.5359749794 66.479690552
 3680.0700000 0.2510116100 -0.000005350 2.4210290909 78.813430786 80.022918701 2.5359749794 66.479690552
 3680.1400000 0.2506116033 0.0000146383 2.3550488949 78.813430786 80.923393250 2.5099930763 66.329734802
 3680.2100000 0.2506116033 0.0000146383 2.3550488949 78.813430786 80.923393250 2.5099930763 66.179779053
 3680.2800000 0.2465113997 0.0000456199 2.3120648861 79.059692383 82.324081421 2.4850099087 66.629638672
 3680.3500000 0.2465113997 0.0000456199 2.3120648861 79.059692383 82.324081421 2.4850099087 67.079498291
 3680.4200000 0.2424111962 0.0000096413 2.3120648861 78.813430786 82.874366760 2.4730179310 67.179458618
 3680.4900000 0.2424111962 0.0000096413 2.3120648861 78.813430786 82.874366760 2.4730179310 67.279426575
 3680.5600000 0.2342108935 -0.000003351 2.2908680439 78.074630737 84.225051880 2.5219850540 67.379402161
 3680.6300000 0.2324106991 -0.000003351 2.2908680439 78.074630737 84.225051880 2.5219850540 67.479377747
 3680.7000000 0.2324106991 -0.000002352 2.2908680439 78.074630737 84.825363159 2.5719499588 67.579353333
