# LAS format log file from PETREL
# Project units are specified as depth units
#==================================================================
~Version information
VERS.   2.0:
WRAP.   NO:
#==================================================================
~Well
STRT.m   215.0000                                  :START DEPTH    
STOP.m   3894.9700                                 :STOP DEPTH     
STEP.m   0.0700                                    :STEP           
NULL.    -999.25                                   :NULL VALUE     
COMP.    Shell BP Todd                             :COMPANY        
WELL.    Wainui-1                                  :WELL           
FLD .    N/A                                       :FIELD          
LOC .    LAT -38.4626847  LON 173.3085245          :LOCATION       
LATI.    -38.4626847                               :SURF. LATITUDE 
LONG.    173.3085245                               :SURF. LONGITUDE
EKB .m   11.300                                    :KB ELEVATION   
EGL .m   -153.700                                  :GROUND LEVEL   
CTRY.    New Zealand                               :COUNTRY        
SRVC.                                              :SERVICE COMPANY
DATE.    30-10-1981 (D-M-Y)                        :LOG DATE       
UWI .    GEO599                                    :UNIQUE WELL ID 
#==================================================================
~Curve
DEPT .m                   : DEPTH
CNL .m3/m3                : CNL
DRH .g/cm3                : DRH
ILD .ohm.m                : ILD
SP .mV                    : SP
BHC .us/ft                : BHC
FDC .g/cm3                : FDC
GRI .API                  : GRI
~Parameter
#==================================================================
~Ascii
# ...
 1988.3100000 0.3264999986 -0.000013026 2.2454190254 79.120330811 107.93589783 2.3540000916 62.450000763
 1988.3800000 0.3264999986 -0.000007014 2.2661540508 79.371597290 107.08419800 2.3570001125 62.200000763
 1988.4500000 0.3291999996 -0.000007014 2.2661540508 79.371597290 107.08419800 2.3570001125 61.750000000
 1988.5200000 0.3325999975 -0.000008016 2.2661540508 79.371597290 101.87370300 2.3699998856 61.299999237
 1988.5900000 0.3325999975 -0.000008016 2.2661540508 79.371597290 101.87370300 2.3699998856 60.633331299
 1988.6600000 0.3012000024 -0.000013026 2.2661540508 79.371597290 91.903808594 2.3489999771 59.966667175
 1988.7300000 0.3012000024 -0.000013026 2.2661540508 79.371597290 91.903808594 2.3489999771 59.299999237
 1988.8000000 0.2901999950 -0.000012024 2.2661540508 79.497222900 87.344703674 2.3399999142 58.750000000
 1988.8700000 0.2901999950 -0.000012024 2.2661540508 79.497222900 87.344703674 2.3399999142 58.200000763
 1988.9400000 0.2840999961 -0.000004008 2.2454190254 80.376663208 88.747497559 2.3570001125 58.349998474
 1989.0100000 0.2840999961 -0.000004008 2.2454190254 80.376663208 88.747497559 2.3570001125 58.500000000
 1989.0800000 0.2779999971 -0.000004008 2.2454190254 80.376663208 88.747497559 2.3570001125 59.349998474
 1989.1500000 0.2761999965 -0.000003006 2.2248740196 80.879203796 90.501007080 2.3699998856 60.200000763
 1989.2200000 0.2761999965 -0.000003006 2.2248740196 80.879203796 90.501007080 2.3699998856 60.150001526
 1989.2900000 0.2892000079 0.0000000000 2.2045159340 80.753562927 101.17230225 2.3640000820 60.099998474
 1989.3600000 0.2892000079 0.0000000000 2.2045159340 80.753562927 101.17230225 2.3640000820 60.150001526
 1989.4300000 0.2980000079 0.0000020040 2.1643600464 79.874130249 103.52709961 2.3719999790 60.200000763
 1989.5000000 0.2980000079 0.0000020040 2.1643600464 79.874130249 103.52709961 2.3719999790 60.299999237
 1989.5700000 0.3075999916 0.0000030060 2.1054909229 79.371597290 102.77549744 2.3650000095 60.400001526
 1989.6400000 0.3143999875 0.0000030060 2.1054909229 79.371597290 102.77549744 2.3650000095 60.500000000
 1989.7100000 0.3143999875 -0.000002004 2.1054909229 79.371597290 101.22239685 2.3580000401 60.500000000
 1989.7800000 0.3212000132 -0.000002004 2.1054909229 79.371597290 101.22239685 2.3580000401 60.500000000
 1989.8500000 0.3212000132 -0.000002004 2.1054909229 79.371597290 101.22239685 2.3580000401 59.650001526
 1989.9200000 0.3253999949 0.0000010020 2.0862259865 80.627929688 100.07009888 2.3610000610 58.799999237
 1989.9900000 0.3253999949 0.0000010020 2.0862259865 80.627929688 100.07009888 2.3610000610 59.299999237
 1990.0600000 0.3222000003 0.0000140281 2.1054909229 82.135528564 98.266532898 2.3789999485 59.799999237
 1990.1300000 0.3188000023 0.0000140281 2.1054909229 82.135528564 98.266532898 2.3789999485 60.299999237
 1990.2000000 0.3188000023 0.0000100200 2.1054909229 82.889328003 98.767532349 2.3800001144 60.799999237
 1990.2700000 0.3181000054 0.0000100200 2.1054909229 82.889328003 98.767532349 2.3800001144 60.849998474
 1990.3400000 0.3181000054 0.0000050100 2.1054909229 82.763687134 97.915832520 2.3880000114 60.900001526
 1990.4100000 0.3174000084 0.0000050100 2.1054909229 82.763687134 97.915832520 2.3880000114 60.366668701
 1990.4800000 0.3174000084 0.0000000000 2.1054909229 83.391853333 97.715423584 2.3770000935 59.833332062
 1990.5500000 0.3174000084 0.0000000000 2.1054909229 83.391853333 97.715423584 2.3770000935 59.299999237
 1990.6200000 0.3174000084 0.0000010020 2.1445560455 83.894378662 97.264526367 2.3619999886 59.699996948
 1990.6900000 0.3206000030 0.0000010020 2.1445560455 83.894378662 97.264526367 2.3619999886 60.099998474
 1990.7600000 0.3107999861 0.0000010020 2.1445560455 83.894378662 97.264526367 2.3619999886 59.699996948
 1990.8300000 0.3107999861 -0.000003006 2.1445560455 84.396926880 97.214431763 2.3610000610 59.299999237
 1990.9000000 0.3203999996 -0.000003006 2.1445560455 84.396926880 97.214431763 2.3610000610 59.949996948
 1990.9700000 0.3203999996 -0.000002004 2.1445560455 83.894378662 98.066131592 2.3489999771 60.599998474
 1991.0400000 0.3274999857 -0.000002004 2.1445560455 83.894378662 98.066131592 2.3489999771 60.349998474
 1991.1100000 0.3274999857 -0.000001002 2.1445560455 83.643112183 99.018043518 2.3519999981 60.099998474
 1991.1800000 0.3346000016 -0.000001002 2.1445560455 83.643112183 99.018043518 2.3519999981 59.666664124
 1991.2500000 0.3339999914 -0.000002004 2.1643600464 82.889328003 99.368736267 2.3580000401 59.233333588
 1991.3200000 0.3339999914 -0.000002004 2.1643600464 82.889328003 99.368736267 2.3580000401 58.799999237
 1991.3900000 0.3404000103 -0.000001002 2.1643600464 82.009887695 100.27050018 2.3589999676 59.049999237
 1991.4600000 0.3404000103 -0.000001002 2.1643600464 82.009887695 100.27050018 2.3589999676 59.299999237
 1991.5300000 0.3420000076 0.0000010020 2.1643600464 81.381706238 100.07009888 2.3559999466 60.049999237
 1991.6000000 0.3420000076 0.0000010020 2.1643600464 81.381706238 100.07009888 2.3559999466 60.799999237
 1991.6700000 0.3400000036 0.0000010020 2.1643600464 81.381706238 100.07009888 2.3559999466 60.650001526
 1991.7400000 0.3400000036 -0.000001002 2.1643600464 81.381706238 97.965927124 2.3559999466 60.500000000
 1991.8100000 0.3379999995 -0.000001002 2.1643600464 81.381706238 97.965927124 2.3559999466 60.549999237
 1991.8800000 0.3454000056 0.0000020040 2.1843450069 81.507347107 97.665328979 2.3440001011 60.599998474
 1991.9500000 0.3454000056 0.0000020040 2.1843450069 81.507347107 97.665328979 2.3440001011 60.599998474
 1992.0200000 0.3499999940 0.0000020040 2.1843450069 82.009887695 98.717437744 2.3529999256 60.599998474
 1992.0900000 0.3499999940 0.0000020040 2.1843450069 82.009887695 98.717437744 2.3529999256 60.633331299
 1992.1600000 0.3546000123 0.0000000000 2.1843450069 82.889328003 98.967941284 2.3369998932 60.666667938
 1992.2300000 0.3546000123 0.0000000000 2.1843450069 82.889328003 98.967941284 2.3369998932 60.700000763
 1992.3000000 0.3689999878 -0.000003006 2.1843450069 85.653236389 99.018043518 2.3259999752 61.050003052
 1992.3700000 0.3684000075 -0.000003006 2.1843450069 85.653236389 99.018043518 2.3259999752 61.400001526
 1992.4400000 0.3684000075 -0.000003006 2.1643600464 84.899436951 100.17030334 2.3220000267 62.200000763
 1992.5100000 0.3677999973 -0.000003006 2.1643600464 84.899436951 100.17030334 2.3220000267 63.000000000
 1992.5800000 0.3677999973 -0.000003006 2.1643600464 84.899436951 100.17030334 2.3220000267 62.349998474
 1992.6500000 0.3526000082 0.0000040080 2.1843450069 85.904510498 97.765533447 2.3399999142 61.700000763
 1992.7200000 0.3526000082 0.0000040080 2.1843450069 85.904510498 97.765533447 2.3399999142 61.700000763
 1992.7900000 0.3542000055 0.0000180361 2.1843450069 87.412109375 97.164321899 2.3580000401 61.700000763
 1992.8600000 0.3594000041 0.0000180361 2.1843450069 87.412109375 97.164321899 2.3580000401 60.900001526
 1992.9300000 0.3594000041 0.0000230461 2.1843450069 88.417182922 97.815628052 2.3680000305 60.099998474
 1993.0000000 0.3641999960 0.0000230461 2.1843450069 88.417182922 97.815628052 2.3680000305 59.633331299
 1993.0700000 0.3641999960 0.0000070140 2.1843450069 89.422241211 98.466926575 2.3559999466 59.166667938
 1993.1400000 0.3689999878 0.0000070140 2.1843450069 89.422241211 98.466926575 2.3559999466 58.700000763
 1993.2100000 0.3689999878 0.0000010020 2.1843450069 89.422241211 97.665328979 2.3499999046 58.700000763
 1993.2800000 0.3459999859 0.0000010020 2.1843450069 89.422241211 97.665328979 2.3499999046 58.700000763
 1993.3500000 0.3459999859 -0.000005010 2.1843450069 89.422241211 97.464942932 2.3399999142 59.050003052
 1993.4200000 0.3370000124 -0.000005010 2.1843450069 89.422241211 97.464942932 2.3399999142 59.400001526
 1993.4900000 0.3483999968 -0.000005010 2.1843450069 89.422241211 97.464942932 2.3399999142 59.750000000
 1993.5600000 0.3483999968 -0.000003006 2.1843450069 89.170967102 97.715423584 2.3450000286 60.099998474
 1993.6300000 0.3483999968 -0.000003006 2.1843450069 89.170967102 97.715423584 2.3450000286 60.250000000
