# LAS format log file from PETREL
# Project units are specified as depth units
#==================================================================
~Version information
VERS.   2.0:
WRAP.   NO:
#==================================================================
~Well
STRT.m   215.0000                                  :START DEPTH    
STOP.m   3894.9700                                 :STOP DEPTH     
STEP.m   0.0700                                    :STEP           
NULL.    -999.25                                   :NULL VALUE     
COMP.    Shell BP Todd                             :COMPANY        
WELL.    Wainui-1                                  :WELL           
FLD .    N/A                                       :FIELD          
LOC .    LAT -38.4626847  LON 173.3085245          :LOCATION       
LATI.    -38.4626847                               :SURF. LATITUDE 
LONG.    173.3085245                               :SURF. LONGITUDE
EKB .m   11.300                                    :KB ELEVATION   
EGL .m   -153.700                                  :GROUND LEVEL   
CTRY.    New Zealand                               :COUNTRY        
SRVC.                                              :SERVICE COMPANY
DATE.    30-10-1981 (D-M-Y)                        :LOG DATE       
UWI .    GEO599                                    :UNIQUE WELL ID 
#==================================================================
~Curve
DEPT .m                   : DEPTH
CNL .m3/m3                : CNL
DRH .g/cm3                : DRH
ILD .ohm.m                : ILD
SP .mV                    : SP
BHC .us/ft                : BHC
FDC .g/cm3                : FDC
GRI .API                  : GRI
~Parameter
#==================================================================
~Ascii
# ...
 678.54000000 0.5098387003 0.0000868264 1.1066240072 52.125000000 159.66549683 2.1396269798 46.622116089
 678.61000000 0.5046380758 0.0000738523 1.0964779854 52.750000000 158.76480103 2.1216080189 45.272918701
 678.68000000 0.5046380758 0.0000738523 1.0964779854 52.750000000 158.76480103 2.1216080189 43.673873901
 678.75000000 0.4964371026 0.0000638722 1.0964779854 52.375000000 156.61309814 2.0985839367 42.074829102
 678.82000000 0.4964371026 0.0000638722 1.0964779854 52.375000000 156.61309814 2.0985839367 41.475189209
 678.89000000 0.5048381090 0.0000678643 1.0864260197 51.875000000 155.41220093 2.0565409660 40.875549316
 678.96000000 0.5122390985 0.0000678643 1.0864260197 51.875000000 155.41220093 2.0565409660 40.742294312
 679.03000000 0.5122390985 0.0000858283 1.0864260197 50.750000000 153.91099548 2.0084910393 40.609035492
 679.10000000 0.5196400285 0.0000858283 1.0864260197 50.750000000 153.91099548 2.0084910393 40.475780487
 679.17000000 0.5196400285 0.0000988024 1.0665960312 50.500000000 157.01339722 1.9634439945 41.175365448
 679.24000000 0.5390424132 0.0000988024 1.0665960312 50.500000000 157.01339722 1.9634439945 41.874950409
 679.31000000 0.5390424132 0.0000558882 1.0568180084 50.125000000 159.06500244 1.8993779421 42.224739075
 679.38000000 0.5352419019 0.0000558882 1.0568180084 50.125000000 159.06500244 1.8993779421 42.574531555
 679.45000000 0.5254406929 0.0000558882 1.0568180084 50.125000000 159.06500244 1.8993779421 41.924919128
 679.52000000 0.5254406929 0.0000818363 1.0471279621 50.125000000 161.51699829 1.9204000235 41.275310516
 679.59000000 0.5282409787 0.0000818363 1.0471279621 50.125000000 161.51699829 1.9204000235 41.575130463
 679.66000000 0.5282409787 0.0001267465 1.0280159712 50.125000000 166.02049255 1.9063849449 41.874950409
 679.73000000 0.5313413739 0.0001267465 1.0280159712 50.125000000 166.02049255 1.9063849449 42.174770355
 679.80000000 0.5313413739 0.0001117764 1.0092530251 49.500000000 166.52090454 1.8833609819 42.474590302
 679.87000000 0.5344418287 0.0001117764 1.0092530251 49.500000000 166.52090454 1.8833609819 42.674468994
 679.94000000 0.5344418287 0.0000938124 1.0000000000 49.125000000 167.62179565 1.9204000235 42.874351501
 680.01000000 0.5532441735 0.0000938124 1.0000000000 49.125000000 167.62179565 1.9204000235 43.074230194
 680.08000000 0.5524441004 0.0000958084 1.0000000000 48.500000000 166.77110291 1.9504309893 43.174171448
 680.15000000 0.5524441004 0.0000958084 1.0000000000 48.500000000 166.77110291 1.9504309893 43.274108887
 680.22000000 0.5296412110 0.0001197605 1.0000000000 48.750000000 161.91729736 1.9614419937 43.424026489
 680.29000000 0.5296412110 0.0001197605 1.0000000000 48.750000000 161.91729736 1.9614419937 43.573940277
 680.36000000 0.5163394809 0.0001197605 1.0000000000 48.750000000 161.91729736 1.9614419937 43.823783875
 680.43000000 0.5163394809 0.0001047904 1.0000000000 48.750000000 157.11349487 1.9784599543 44.073631287
 680.50000000 0.5030379295 0.0001047904 1.0000000000 48.750000000 157.11349487 1.9784599543 44.673274994
 680.57000000 0.4822353125 0.0000908183 1.0000000000 49.500000000 159.41529846 2.0325160027 45.272918701
 680.64000000 0.4822353125 0.0000908183 1.0000000000 49.500000000 159.41529846 2.0325160027 46.172378540
 680.71000000 0.4830353856 0.0000608782 1.0092530251 51.500000000 165.27000427 2.0285120010 47.071838379
 680.78000000 0.4830353856 0.0000608782 1.0092530251 51.500000000 165.27000427 2.0285120010 47.404972076
 680.85000000 0.4884361029 0.0000459082 1.0185910463 51.500000000 166.82119751 2.0044870377 47.738105774
 680.92000000 0.4884361029 0.0000459082 1.0185910463 51.500000000 166.82119751 2.0044870377 48.071239471
 680.99000000 0.4944368899 0.0000479042 1.0280159712 51.125000000 162.31759644 1.9794609547 48.520969391
 681.06000000 0.4944368899 0.0000479042 1.0280159712 51.125000000 162.31759644 1.9794609547 48.970699310
 681.13000000 0.4891361892 0.0000479042 1.0280159712 51.125000000 162.31759644 1.9794609547 48.970699310
 681.20000000 0.4838354886 0.0000658683 1.0471279621 50.125000000 155.96260071 1.9384180307 48.970699310
 681.27000000 0.4838354886 0.0000658683 1.0471279621 50.125000000 155.96260071 1.9384180307 48.171180725
 681.34000000 0.4830353856 0.0000738523 1.0568180084 49.750000000 155.71240234 1.8793569803 47.371658325
 681.41000000 0.4830353856 0.0000738523 1.0568180084 49.750000000 155.71240234 1.8793569803 47.871360779
 681.48000000 0.4916363955 0.0000658683 1.0568180084 49.250000000 156.51300049 1.7922669649 48.371059418
 681.55000000 0.4916363955 0.0000658683 1.0568180084 49.250000000 156.51300049 1.7922669649 48.021274567
 681.62000000 0.5022377968 0.0000259481 1.0665960312 49.000000000 155.06190491 1.8263020515 47.671489716
 681.69000000 0.5110388994 0.0000259481 1.0665960312 49.000000000 155.06190491 1.8263020515 47.338352203
 681.76000000 0.5110388994 0.0000359281 1.0665960312 49.125000000 154.91180420 1.9274070263 47.005218506
 681.83000000 0.5198400021 0.0000359281 1.0665960312 49.125000000 154.91180420 1.9274070263 46.672080994
 681.90000000 0.5198400021 0.0000389222 1.0568180084 49.625000000 153.36050415 1.9143940210 46.622108459
 681.97000000 0.5262408257 0.0000389222 1.0568180084 49.625000000 153.36050415 1.9143940210 46.572139740
 682.04000000 0.5262408257 0.0000389222 1.0568180084 49.625000000 153.36050415 1.9143940210 46.722049713
 682.11000000 0.5030379295 0.0000768463 1.0568180084 50.375000000 147.80619812 1.8903690577 46.871959686
 682.18000000 0.4742341936 0.0000768463 1.0568180084 50.375000000 147.80619812 1.8903690577 46.821990967
 682.25000000 0.4742341936 0.0000778443 1.0471279621 50.750000000 148.30650330 1.8873660564 46.772018433
 682.32000000 0.4756344855 0.0000778443 1.0471279621 50.750000000 148.30650330 1.8873660564 45.972496033
 682.39000000 0.4756344855 0.0000678643 1.0280159712 50.750000000 156.11270142 1.9634439945 45.172969818
 682.46000000 0.4777348042 0.0000678643 1.0280159712 50.750000000 156.11270142 1.9634439945 44.706584930
 682.53000000 0.4777348042 0.0000299401 1.0092530251 50.750000000 157.91409302 1.9624429941 44.240196228
 682.60000000 0.4798350930 0.0000299401 1.0092530251 50.750000000 157.91409302 1.9624429941 43.773811340
 682.67000000 0.4798350930 0.0000269461 1.0000000000 50.500000000 157.11349487 1.9584389925 43.024261475
 682.74000000 0.5038380027 0.0000269461 1.0000000000 50.500000000 157.11349487 1.9584389925 42.274711609
 682.81000000 0.5112388730 0.0000518962 1.0000000000 50.500000000 155.11189270 1.9764579535 42.424621582
 682.88000000 0.5112388730 0.0000518962 1.0000000000 50.500000000 155.11189270 1.9764579535 42.574531555
 682.95000000 0.5110388994 0.0000518962 1.0000000000 50.500000000 155.11189270 1.9764579535 42.974288940
 683.02000000 0.5110388994 0.0000868264 1.0000000000 50.125000000 151.75929260 1.9904719591 43.374050140
 683.09000000 0.5137392282 0.0000868264 1.0000000000 50.125000000 151.75929260 1.9904719591 43.823780060
 683.16000000 0.5137392282 0.0001377245 1.0000000000 50.250000000 155.11189270 2.0024850368 44.273509979
 683.23000000 0.5164394975 0.0001377245 1.0000000000 50.250000000 155.11189270 2.0024850368 43.923725128
 683.30000000 0.5310413837 0.0001157685 1.0000000000 50.000000000 160.91650391 1.9904719591 43.573940277
 683.37000000 0.5310413837 0.0001157685 1.0000000000 50.000000000 160.91650391 1.9904719591 43.607250214
 683.44000000 0.5312414169 0.0000798403 1.0000000000 50.500000000 163.31840515 1.9814629555 43.640560150
 683.51000000 0.5312414169 0.0000798403 1.0000000000 50.500000000 163.31840515 1.9814629555 43.673870087
 683.58000000 0.5326415896 0.0001027944 1.0000000000 50.625000000 165.77029419 2.0235071182 44.823184967
 683.65000000 0.5326415896 0.0001027944 1.0000000000 50.625000000 165.77029419 2.0235071182 45.972499847
 683.72000000 0.5297412276 0.0001087824 1.0000000000 50.250000000 163.56860352 2.0465300083 46.322288513
 683.79000000 0.5297412276 0.0001087824 1.0000000000 50.250000000 163.56860352 2.0465300083 46.672080994
 683.86000000 0.5268408060 0.0001087824 1.0000000000 50.250000000 163.56860352 2.0465300083 47.371658325
