# LAS format log file from PETREL
# Project units are specified as depth units
#==================================================================
~Version information
VERS.   2.0:
WRAP.   NO:
#==================================================================
~Well
STRT.m   215.0000                                  :START DEPTH    
STOP.m   3894.9700                                 :STOP DEPTH     
STEP.m   0.0700                                    :STEP           
NULL.    -999.25                                   :NULL VALUE     
COMP.    Shell BP Todd                             :COMPANY        
WELL.    Wainui-1                                  :WELL           
FLD .    N/A                                       :FIELD          
LOC .    LAT -38.4626847  LON 173.3085245          :LOCATION       
LATI.    -38.4626847                               :SURF. LATITUDE 
LONG.    173.3085245                               :SURF. LONGITUDE
EKB .m   11.300                                    :KB ELEVATION   
EGL .m   -153.700                                  :GROUND LEVEL   
CTRY.    New Zealand                               :COUNTRY        
SRVC.                                              :SERVICE COMPANY
DATE.    30-10-1981 (D-M-Y)                        :LOG DATE       
UWI .    GEO599                                    :UNIQUE WELL ID 
#==================================================================
~Curve
DEPT .m                   : DEPTH
CNL .m3/m3                : CNL
DRH .g/cm3                : DRH
ILD .ohm.m                : ILD
SP .mV                    : SP
BHC .us/ft                : BHC
FDC .g/cm3                : FDC
GRI .API                  : GRI
~Parameter
#==================================================================
~Ascii
# ...
 2861.4900000 0.3449999988 0.0000030060 2.7235150337 87.412109375 89.098190308 2.4179999828 52.500000000
 2861.5600000 0.3449999988 0.0000030060 2.7235150337 87.412109375 89.098190308 2.4179999828 52.799999237
 2861.6300000 0.3483999968 -0.000004008 2.7486650944 86.658309937 88.496986389 2.4130001068 53.099998474
 2861.7000000 0.3483999968 -0.000004008 2.7486650944 86.658309937 88.496986389 2.4130001068 53.949996948
 2861.7700000 0.3515999913 -0.000005010 2.7740468979 85.904510498 90.501007080 2.3859999180 54.799999237
 2861.8400000 0.3515999913 -0.000005010 2.7740468979 85.904510498 90.501007080 2.3859999180 54.849998474
 2861.9100000 0.3411999941 -0.000006012 2.7740468979 85.150711060 91.703399658 2.4059998989 54.900001526
 2861.9800000 0.3282999992 -0.000006012 2.7740468979 85.150711060 91.703399658 2.4059998989 54.866668701
 2862.0500000 0.3282999992 0.0000070140 2.7996640205 84.396926880 90.651313782 2.4360001087 54.833332062
 2862.1200000 0.3154000044 0.0000070140 2.7996640205 84.396926880 90.651313782 2.4360001087 54.799999237
 2862.1900000 0.3154000044 0.0000130261 2.7996640205 82.889328003 90.300598145 2.4449999332 54.900001526
 2862.2600000 0.3190000057 0.0000130261 2.7996640205 82.889328003 90.300598145 2.4449999332 55.000000000
 2862.3300000 0.3190000057 0.0000130261 2.7996640205 82.889328003 90.300598145 2.4449999332 54.950000763
 2862.4000000 0.3219999969 0.0000010020 2.7740468979 81.507347107 89.949913025 2.4409999847 54.900001526
 2862.4700000 0.3172000051 0.0000010020 2.7740468979 81.507347107 89.949913025 2.4409999847 55.250000000
 2862.5400000 0.3172000051 0.0000110221 2.7740468979 80.376663208 87.845687866 2.4419999123 55.599998474
 2862.6100000 0.3172000051 0.0000110221 2.7740468979 80.376663208 87.845687866 2.4419999123 55.949996948
 2862.6800000 0.3172000051 0.0000130261 2.7740468979 80.627929688 87.244491577 2.4549999237 56.299999237
 2862.7500000 0.3116999865 0.0000130261 2.7740468979 80.627929688 87.244491577 2.4549999237 56.400001526
 2862.8200000 0.3116999865 0.0000090180 2.7740468979 81.507347107 87.495002747 2.4679999352 56.500000000
 2862.8900000 0.3061999977 0.0000090180 2.7740468979 81.507347107 87.495002747 2.4679999352 56.866664886
 2862.9600000 0.3061999977 0.0000020040 2.7486650944 82.009887695 87.545089722 2.4639999866 57.233333588
 2863.0300000 0.3018000126 0.0000020040 2.7486650944 82.009887695 87.545089722 2.4639999866 57.599998474
 2863.1000000 0.2960000038 0.0000030060 2.7486650944 81.130447388 87.344703674 2.4460000992 57.849998474
 2863.1700000 0.2960000038 0.0000030060 2.7486650944 81.130447388 87.344703674 2.4460000992 58.099998474
 2863.2400000 0.2948000133 0.0000030060 2.7486650944 81.130447388 87.344703674 2.4460000992 58.099998474
 2863.3100000 0.2948000133 0.0000040080 2.7486650944 79.120330811 88.947891235 2.4479999542 58.099998474
 2863.3800000 0.2967999876 0.0000040080 2.7486650944 79.120330811 88.947891235 2.4479999542 58.549999237
 2863.4500000 0.2967999876 -0.000004008 2.7235150337 79.748489380 89.398803711 2.4419999123 59.000000000
 2863.5200000 0.2987999916 -0.000004008 2.7235150337 79.748489380 89.398803711 2.4419999123 58.549999237
 2863.5900000 0.3050000072 0.0000000000 2.6985950470 80.376663208 89.799591064 2.4419999123 58.099998474
 2863.6600000 0.3050000072 0.0000000000 2.6985950470 80.376663208 89.799591064 2.4419999123 57.799999237
 2863.7300000 0.3059999943 0.0000040080 2.6985950470 79.497222900 91.352706909 2.4519999027 57.500000000
 2863.8000000 0.3059999943 0.0000040080 2.6985950470 79.497222900 91.352706909 2.4519999027 57.200000763
 2863.8700000 0.3070000112 0.0000070140 2.6739029884 79.120330811 90.651313782 2.4619998932 57.250000000
 2863.9400000 0.3070000112 0.0000070140 2.6739029884 79.120330811 90.651313782 2.4619998932 57.299999237
 2864.0100000 0.3093999922 0.0000130261 2.6739029884 80.376663208 89.799591064 2.4690001011 56.400001526
 2864.0800000 0.3093999922 0.0000130261 2.6739029884 80.376663208 89.799591064 2.4690001011 55.500000000
 2864.1500000 0.3045000136 0.0000130261 2.6739029884 80.376663208 89.799591064 2.4690001011 54.799999237
 2864.2200000 0.2996000051 0.0000120240 2.6739029884 80.125396729 88.897796631 2.4690001011 54.099998474
 2864.2900000 0.2996000051 0.0000120240 2.6739029884 80.125396729 88.897796631 2.4690001011 53.949996948
 2864.3600000 0.2969999909 0.0000110221 2.6739029884 76.482040405 88.146293640 2.4660000801 53.799999237
 2864.4300000 0.2969999909 0.0000110221 2.6739029884 76.482040405 88.146293640 2.4660000801 54.000000000
 2864.5000000 0.2937999964 0.0000070140 2.6739029884 74.597549438 87.394790649 2.4530000687 54.200000763
 2864.5700000 0.2937999964 0.0000070140 2.6739029884 74.597549438 87.394790649 2.4530000687 54.733333588
 2864.6400000 0.3084000051 0.0000040080 2.6739029884 75.853866577 87.845687866 2.4500000477 55.266666412
 2864.7100000 0.3127999902 0.0000040080 2.6739029884 75.853866577 87.845687866 2.4500000477 55.799999237
 2864.7800000 0.3127999902 0.0000030060 2.6739029884 75.476966858 88.046096802 2.4800000191 56.250000000
 2864.8500000 0.3172000051 0.0000030060 2.6739029884 75.476966858 88.046096802 2.4800000191 56.700000763
 2864.9200000 0.3172000051 0.0000030060 2.6985950470 74.848823547 88.346687317 2.4839999676 57.250000000
 2864.9900000 0.3172000051 0.0000030060 2.6985950470 74.848823547 88.346687317 2.4839999676 57.799999237
 2865.0600000 0.3172000051 0.0000030060 2.6985950470 74.848823547 88.346687317 2.4839999676 57.799999237
 2865.1300000 0.3147999942 0.0000030060 2.6985950470 75.476966858 89.048103333 2.4779999256 57.799999237
 2865.2000000 0.3075999916 0.0000030060 2.6985950470 75.476966858 89.048103333 2.4779999256 57.349998474
 2865.2700000 0.3075999916 -0.000003006 2.6985950470 77.110198975 89.549102783 2.4649999142 56.900001526
 2865.3400000 0.3007000089 -0.000003006 2.6985950470 77.110198975 89.549102783 2.4649999142 57.000000000
 2865.4100000 0.3007000089 0.0000040080 2.6985950470 79.874130249 89.348686218 2.4539999962 57.099998474
 2865.4800000 0.2937999964 0.0000040080 2.6985950470 79.874130249 89.348686218 2.4539999962 57.333332062
 2865.5500000 0.2937999964 0.0000130261 2.6985950470 84.899436951 88.647293091 2.4639999866 57.566665649
 2865.6200000 0.2933999896 0.0000130261 2.6985950470 84.899436951 88.647293091 2.4639999866 57.799999237
 2865.6900000 0.2933999896 0.0000280561 2.6985950470 95.578247070 88.597198486 2.4900000095 58.349998474
 2865.7600000 0.2915999889 0.0000280561 2.6985950470 95.578247070 88.597198486 2.4900000095 58.900001526
 2865.8300000 0.3014000058 0.0000130261 2.6985950470 96.834579468 90.250503540 2.4860000610 58.750000000
 2865.9000000 0.3014000058 0.0000130261 2.6985950470 96.834579468 90.250503540 2.4860000610 58.599998474
 2865.9700000 0.3034000099 0.0000130261 2.6985950470 96.834579468 90.250503540 2.4860000610 57.699996948
 2866.0400000 0.3034000099 0.0000110221 2.6985950470 97.713996887 90.551101685 2.4739999771 56.799999237
 2866.1100000 0.3041999936 0.0000110221 2.6985950470 97.713996887 90.551101685 2.4739999771 55.900001526
 2866.1800000 0.3041999936 0.0000200401 2.6739029884 97.965270996 90.200393677 2.4820001125 55.000000000
 2866.2500000 0.3050000072 0.0000200401 2.6739029884 97.965270996 90.200393677 2.4820001125 54.099998474
 2866.3200000 0.3030000031 0.0000410822 2.6739029884 97.462738037 88.647293091 2.5009999275 53.200000763
 2866.3900000 0.3030000031 0.0000410822 2.6739029884 97.462738037 88.647293091 2.5009999275  -999.250000
 2866.4600000  -999.250000  -999.250000  -999.250000  -999.250000  -999.250000  -999.250000  -999.250000
 2866.5300000  -999.250000  -999.250000  -999.250000  -999.250000  -999.250000  -999.250000  -999.250000
 2866.6000000 0.3030000031 0.0000380762 2.6739029884 96.834579468 88.496986389 2.4979999065  -999.250000
 2866.6700000 0.3030000031 0.0000380762 2.6739029884 96.834579468 88.496986389 2.4979999065 51.799999237
 2866.7400000 0.3080999851 0.0000170341 2.6739029884 95.955139160 89.048103333 2.4769999981 51.299999237
 2866.8100000 0.3131999969 0.0000170341 2.6739029884 95.955139160 89.048103333 2.4769999981 50.799999237
