# LAS format log file from PETREL
# Project units are specified as depth units
#==================================================================
~Version information
VERS.   2.0:
WRAP.   NO:
#==================================================================
~Well
STRT.m   215.0000                                  :START DEPTH    
STOP.m   3894.9700                                 :STOP DEPTH     
STEP.m   0.0700                                    :STEP           
NULL.    -999.25                                   :NULL VALUE     
COMP.    Shell BP Todd                             :COMPANY        
WELL.    Wainui-1                                  :WELL           
FLD .    N/A                                       :FIELD          
LOC .    LAT -38.4626847  LON 173.3085245          :LOCATION       
LATI.    -38.4626847                               :SURF. LATITUDE 
LONG.    173.3085245                               :SURF. LONGITUDE
EKB .m   11.300                                    :KB ELEVATION   
EGL .m   -153.700                                  :GROUND LEVEL   
CTRY.    New Zealand                               :COUNTRY        
SRVC.                                              :SERVICE COMPANY
DATE.    30-10-1981 (D-M-Y)                        :LOG DATE       
UWI .    GEO599                                    :UNIQUE WELL ID 
#==================================================================
~Curve
DEPT .m                   : DEPTH
CNL .m3/m3                : CNL
DRH .g/cm3                : DRH
ILD .ohm.m                : ILD
SP .mV                    : SP
BHC .us/ft                : BHC
FDC .g/cm3                : FDC
GRI .API                  : GRI
~Parameter
#==================================================================
~Ascii
# ...
 3082.4800000 0.4307999909 0.0000350702 0.9908503294 90.427291870 115.35070038 2.3559999466 54.400001526
 3082.5500000 0.4307999909 0.0000350702 0.9908503294 90.427291870 115.35070038 2.3559999466 54.800003052
 3082.6200000 0.4131999910 0.0000300601 0.9908503294 90.050399780 108.98799896 2.3380000591 55.200000763
 3082.6900000 0.4131999910 0.0000300601 0.9908503294 90.050399780 108.98799896 2.3380000591 55.600002289
 3082.7600000 0.3989999890 0.0000290581 0.9908503294 89.170967102 108.88780212 2.3399999142 56.000000000
 3082.8300000 0.4020999968 0.0000290581 0.9908503294 89.170967102 108.88780212 2.3399999142 56.400001526
 3082.9000000 0.4020999968 0.0000440882 1.0000000000 88.417182922 111.09220123 2.3529999256 55.650001526
 3082.9700000 0.4052000046 0.0000440882 1.0000000000 88.417182922 111.09220123 2.3529999256 54.900001526
 3083.0400000 0.4052000046 0.0000400802 1.0000000000 88.040267944 113.79759979 2.3540000916 53.750000000
 3083.1100000 0.3946000040 0.0000400802 1.0000000000 88.040267944 113.79759979 2.3540000916 52.599998474
 3083.1800000 0.3946000040 0.0000400802 1.0000000000 88.040267944 113.79759979 2.3540000916 52.049999237
 3083.2500000 0.4027999938 0.0000270541 1.0000000000 88.165908813 120.81159973 2.3580000401 51.500000000
 3083.3200000 0.4199999869 0.0000270541 1.0000000000 88.165908813 120.81159973 2.3580000401 51.799999237
 3083.3900000 0.4199999869 0.0000340681 0.9908503294 88.417182922 123.56710052 2.3650000095 52.099998474
 3083.4600000 0.4137000144 0.0000340681 0.9908503294 88.417182922 123.56710052 2.3650000095 52.699996948
 3083.5300000 0.4137000144 0.0000300601 0.9908503294 88.542800903 123.36669922 2.3900001049 53.299999237
 3083.6000000 0.4074000120 0.0000300601 0.9908503294 88.542800903 123.36669922 2.3900001049 52.533332825
 3083.6700000 0.4074000120 0.0000290581 0.9817842245 88.919692993 121.91380310 2.3740000725 51.766666412
 3083.7400000 0.4074000120 0.0000290581 0.9817842245 88.919692993 121.91380310 2.3740000725 51.000000000
 3083.8100000 0.3977999985 0.0000501002 0.9817842245 88.794067383 116.30259705 2.4049999714 51.150001526
 3083.8800000 0.3977999985 0.0000501002 0.9817842245 88.794067383 116.30259705 2.4049999714 51.299999237
 3083.9500000 0.3846000135 0.0000270541 0.9817842245 88.919692993 112.74549866 2.3759999275 50.949996948
 3084.0200000 0.3846000135 0.0000270541 0.9817842245 88.919692993 112.74549866 2.3759999275 50.599998474
 3084.0900000 0.3986000121 0.0000270541 0.9817842245 88.919692993 112.74549866 2.3759999275 50.000000000
 3084.1600000 0.3986000121 0.0000300601 0.9817842245 89.422241211 109.93990326 2.3810000420 49.400001526
 3084.2300000 0.3932000101 0.0000300601 0.9817842245 89.422241211 109.93990326 2.3810000420 48.550003052
 3084.3000000 0.3932000101 0.0000290581 0.9728010297 89.799133301 107.88580322 2.3889999390 47.700000763
 3084.3700000 0.3878000081 0.0000290581 0.9728010297 89.799133301 107.88580322 2.3889999390 47.450000763
 3084.4400000 0.3892000914 0.0000310621 0.9728010297 89.799133301 108.88780212 2.3929998875 47.200000763
 3084.5100000 0.3892000914 0.0000310621 0.9728010297 89.799133301 108.88780212 2.3929998875 47.533332825
 3084.5800000 0.3901999891 0.0000200401 0.9728010297 89.673492432 110.94190216 2.3800001144 47.866668701
 3084.6500000 0.3901999891 0.0000200401 0.9728010297 89.673492432 110.94190216 2.3800001144 48.200000763
 3084.7200000 0.3781999946 0.0000350702 0.9728010297 89.924758911 114.49900055 2.3970000744 48.300003052
 3084.7900000 0.3781999946 0.0000350702 0.9728010297 89.924758911 114.49900055 2.3970000744 48.400001526
 3084.8600000 0.3781999946 0.0000511022 0.9817842245 90.050399780 115.65129852 2.4079999924 48.150001526
 3084.9300000 0.3781999946 0.0000511022 0.9817842245 90.050399780 115.65129852 2.4079999924 47.900001526
 3085.0000000 0.3781999946 0.0000511022 0.9817842245 90.050399780 115.65129852 2.4079999924 48.500000000
 3085.0700000 0.3801999986 0.0000551102 0.9908503294 89.422241211 116.30259705 2.4040000439 49.099998474
 3085.1400000 0.3801999986 0.0000551102 0.9908503294 89.422241211 116.30259705 2.4040000439 49.549999237
 3085.2100000 0.3770000041 0.0000531062 1.0092339516 88.165908813 113.39679718 2.3959999084 50.000000000
 3085.2800000 0.3770000041 0.0000531062 1.0092339516 88.165908813 113.39679718 2.3959999084 49.700000763
 3085.3500000 0.3723999858 0.0000310621 1.0279599428 87.160842896 110.39080048 2.3900001049 49.400001526
 3085.4200000 0.3723999858 0.0000310621 1.0279599428 87.160842896 110.39080048 2.3900001049 49.266666412
 3085.4900000 0.3750000000 0.0000330662 1.0567009449 86.407043457 107.68540192 2.3650000095 49.133335114
 3085.5600000 0.3765000105 0.0000330662 1.0567009449 86.407043457 107.68540192 2.3650000095 49.000000000
 3085.6300000 0.3765000105 0.0000160321 1.1064000130 86.030143738 106.38279724 2.3399999142 49.500000000
 3085.7000000 0.3779999912 0.0000160321 1.1064000130 86.030143738 106.38279724 2.3399999142 50.000000000
 3085.7700000 0.3779999912 0.0000160321 1.1064000130 86.030143738 106.38279724 2.3399999142 50.650001526
 3085.8400000 0.3813999891 0.0000040080 1.1373339891 86.407043457 105.68139648 2.3080000877 51.299999237
 3085.9100000 0.3813999891 0.0000040080 1.1373339891 86.407043457 105.68139648 2.3080000877 51.099998474
 3085.9800000 0.3906000853 0.0000170341 1.1691340208 87.412109375 105.48100281 2.3039999008 50.900001526
 3086.0500000 0.3892000914 0.0000170341 1.1691340208 87.412109375 105.48100281 2.3039999008 51.099998474
 3086.1200000 0.3892000914 0.0000200401 1.2018229961 87.537727356 105.68139648 2.3329999447 51.299999237
 3086.1900000 0.3876000047 0.0000200401 1.2018229961 87.537727356 105.68139648 2.3329999447 50.849998474
 3086.2600000 0.3876000047 0.0000511022 1.2129199505 87.789001465 104.62930298 2.3770000935 50.400001526
 3086.3300000 0.3860000074 0.0000511022 1.2129199505 87.789001465 104.62930298 2.3770000935 50.600002289
 3086.4000000 0.3860000074 0.0000621243 1.2129199505 87.160842896 104.07820129 2.4119999409 50.799999237
 3086.4700000 0.3763999939 0.0000621243 1.2129199505 87.160842896 104.07820129 2.4119999409 51.000000000
 3086.5400000 0.3882000148 0.0000400802 1.2018229961 85.904510498 101.92379761 2.4019999504 50.549999237
 3086.6100000 0.3882000148 0.0000400802 1.2018229961 85.904510498 101.92379761 2.4019999504 50.099998474
 3086.6800000 0.3889999986 0.0000400802 1.2018229961 85.904510498 101.92379761 2.4019999504 49.250000000
 3086.7500000 0.3889999986 0.0000330662 1.1908260584 85.527618408 99.769531250 2.3810000420 48.400001526
 3086.8200000 0.3862000108 0.0000330662 1.1908260584 85.527618408 99.769531250 2.3810000420 48.150001526
 3086.8900000 0.3862000108 0.0000410822 1.1799299717 86.030143738 102.57510376 2.3729999065 47.900001526
 3086.9600000 0.3833999932 0.0000410822 1.1799299717 86.030143738 102.57510376 2.3729999065 48.650001526
 3087.0300000 0.3833999932 0.0000430862 1.1478370428 86.783943176 104.47899628 2.3880000114 49.400001526
 3087.1000000 0.3655999899 0.0000430862 1.1478370428 86.783943176 104.47899628 2.3880000114 49.233333588
 3087.1700000 0.3610000014 0.0000480962 1.1166169643 86.407043457 106.18240356 2.3880000114 49.066669464
 3087.2400000 0.3610000014 0.0000480962 1.1166169643 86.407043457 106.18240356 2.3880000114 48.900001526
 3087.3100000 0.3718000054 0.0000460922 1.0862460136 84.773818970 107.78559875 2.4010000229 47.750000000
 3087.3800000 0.3718000054 0.0000460922 1.0862460136 84.773818970 107.78559875 2.4010000229 46.599998474
 3087.4500000 0.3754000068 0.0000170341 1.0664589405 84.522552490 107.18440247 2.3800001144 46.400001526
 3087.5200000 0.3754000068 0.0000170341 1.0664589405 84.522552490 107.18440247 2.3800001144 46.200000763
 3087.5900000 0.3698000014 0.0000170341 1.0664589405 84.522552490 107.18440247 2.3800001144 46.599998474
 3087.6600000 0.3641999960 0.0000270541 1.0470319986 84.522552490 108.33670044 2.3570001125 47.000000000
 3087.7300000 0.3641999960 0.0000270541 1.0470319986 84.522552490 108.33670044 2.3570001125 47.000000000
 3087.8000000 0.3731999993 0.0000250501 1.0470319986 84.396926880 109.88980103 2.3650000095 47.000000000
