# LAS format log file from PETREL
# Project units are specified as depth units
#==================================================================
~Version information
VERS.   2.0:
WRAP.   NO:
#==================================================================
~Well
STRT.m   215.0000                                  :START DEPTH    
STOP.m   3894.9700                                 :STOP DEPTH     
STEP.m   0.0700                                    :STEP           
NULL.    -999.25                                   :NULL VALUE     
COMP.    Shell BP Todd                             :COMPANY        
WELL.    Wainui-1                                  :WELL           
FLD .    N/A                                       :FIELD          
LOC .    LAT -38.4626847  LON 173.3085245          :LOCATION       
LATI.    -38.4626847                               :SURF. LATITUDE 
LONG.    173.3085245                               :SURF. LONGITUDE
EKB .m   11.300                                    :KB ELEVATION   
EGL .m   -153.700                                  :GROUND LEVEL   
CTRY.    New Zealand                               :COUNTRY        
SRVC.                                              :SERVICE COMPANY
DATE.    30-10-1981 (D-M-Y)                        :LOG DATE       
UWI .    GEO599                                    :UNIQUE WELL ID 
#==================================================================
~Curve
DEPT .m                   : DEPTH
CNL .m3/m3                : CNL
DRH .g/cm3                : DRH
ILD .ohm.m                : ILD
SP .mV                    : SP
BHC .us/ft                : BHC
FDC .g/cm3                : FDC
GRI .API                  : GRI
~Parameter
#==================================================================
~Ascii
# ...
 3298.0800000 0.4462000132 0.0000671343 0.7874221206 110.90549469 113.94789886 2.4049999714 45.250000000
 3298.1500000 0.4322000146 0.0000390782 0.7946935296 109.64910126 112.29460144 2.3719999790 45.200000763
 3298.2200000 0.4289999902 0.0000390782 0.7946935296 109.64910126 112.29460144 2.3719999790 44.700000763
 3298.2900000 0.4289999902 0.0000190381 0.8020319939 110.90549469 110.89179993 2.3450000286 44.200000763
 3298.3600000 0.4257999957 0.0000190381 0.8020319939 110.90549469 110.89179993 2.3450000286 43.700000763
 3298.4300000 0.4257999957 0.0000120240 0.8094382286 112.66429901 109.08820343 2.3090000153 44.250000000
 3298.5000000 0.4393999875 0.0000120240 0.8094382286 112.66429901 109.08820343 2.3090000153 44.799999237
 3298.5700000 0.4393999875 0.0000120240 0.8094382286 112.66429901 109.08820343 2.3090000153 45.299999237
 3298.6400000 0.4374000132 0.0000090180 0.8169128895 112.79000092 109.18840027 2.2820000648 45.799999237
 3298.7100000 0.4284000099 0.0000090180 0.8169128895 112.79000092 109.18840027 2.2820000648 46.049999237
 3298.7800000 0.4284000099 0.0000070140 0.8169128895 112.16179657 109.53910065 2.2609999180 46.299999237
 3298.8500000 0.4296000004 0.0000070140 0.8169128895 112.16179657 109.53910065 2.2609999180 46.199996948
 3298.9200000 0.4296000004 0.0000230461 0.8244562745 111.91049957 110.19039917 2.2920000553 46.099998474
 3298.9900000 0.4307999909 0.0000230461 0.8244562745 111.91049957 110.19039917 2.2920000553 45.949996948
 3299.0600000 0.4307999909 0.0000450902 0.8320695758 111.91049957 110.59120178 2.3559999466 45.799999237
 3299.1300000 0.4363999963 0.0000450902 0.8320695758 111.91049957 110.59120178 2.3559999466 45.866664886
 3299.2000000 0.4329999983 0.0000360722 0.8475077748 112.53870392 111.59320068 2.3499999046 45.933334351
 3299.2700000 0.4329999983 0.0000360722 0.8475077748 112.53870392 111.59320068 2.3499999046 46.000000000
 3299.3400000 0.4234000146 0.0000120240 0.8475077748 112.91559601 110.34069824 2.3459999561 46.299999237
 3299.4100000 0.4234000146 0.0000120240 0.8475077748 112.91559601 110.34069824 2.3459999561 46.599998474
 3299.4800000 0.4052000046 0.0000120240 0.8475077748 112.91559601 110.34069824 2.3459999561 47.000000000
 3299.5500000 0.4052000046 0.0000110221 0.8553339839 113.41810608 111.49299622 2.3529999256 47.400001526
 3299.6200000 0.3971000016 0.0000110221 0.8553339839 113.41810608 111.49299622 2.3529999256 47.099998474
 3299.6900000 0.3971000016 0.0000160321 0.8632324934 113.66940308 114.29859924 2.3610000610 46.799999237
 3299.7600000 0.3889999986 0.0000160321 0.8632324934 113.66940308 114.29859924 2.3610000610 46.349998474
 3299.8300000 0.3941999972 0.0000200401 0.8712038994 113.92070007 113.14630127 2.3619999886 45.900001526
 3299.9000000 0.3941999972 0.0000200401 0.8712038994 113.92070007 113.14630127 2.3619999886 45.700000763
 3299.9700000 0.3989999890 0.0000260521 0.8712038994 113.92070007 114.34870148 2.3610000610 45.500000000
 3300.0400000 0.3989999890 0.0000260521 0.8712038994 113.92070007 114.34870148 2.3610000610 45.299999237
 3300.1100000 0.3883999884 0.0000160321 0.8792486787 113.41810608 114.39880371 2.3559999466 45.349998474
 3300.1800000 0.3883999884 0.0000160321 0.8792486787 113.41810608 114.39880371 2.3559999466 45.400001526
 3300.2500000 0.3892000020 0.0000170341 0.8792486787 112.91559601 110.59120178 2.3740000725 45.200000763
 3300.3200000 0.3899999857 0.0000170341 0.8792486787 112.91559601 110.59120178 2.3740000725 45.000000000
 3300.3900000 0.3899999857 0.0000170341 0.8792486787 112.91559601 110.59120178 2.3740000725 44.650001526
 3300.4600000 0.4086000025 0.0000260521 0.8712038994 111.65930176 114.19840240 2.3770000935 44.299999237
 3300.5300000 0.4086000025 0.0000260521 0.8712038994 111.65930176 114.19840240 2.3770000935 44.599998474
 3300.6000000 0.4146000147 0.0000200401 0.8712038994 111.15670013 111.54309845 2.3719999790 44.900001526
 3300.6700000 0.4146000147 0.0000200401 0.8712038994 111.15670013 111.54309845 2.3719999790 44.000000000
 3300.7400000 0.4230000079 0.0000190381 0.8632324934 110.90549469 110.94190216 2.3480000496 43.099998474
 3300.8100000 0.4323999882 0.0000190381 0.8632324934 110.90549469 110.94190216 2.3480000496 44.033332825
 3300.8800000 0.4323999882 0.0000090180 0.8632324934 111.53359985 110.69139862 2.3239998817 44.966667175
 3300.9500000 0.4368999898 0.0000090180 0.8632324934 111.53359985 110.69139862 2.3239998817 45.900001526
 3301.0200000 0.4368999898 0.0000050100 0.8632324934 111.91049957 108.28659821 2.2980000973 46.800003052
 3301.0900000 0.4413999915 0.0000050100 0.8632324934 111.91049957 108.28659821 2.2980000973 47.700000763
 3301.1600000 0.4413999915 0.0000190381 0.8553339839 112.66429901 110.39080048 2.3120000362 48.099998474
 3301.2300000 0.4350000024 0.0000190381 0.8553339839 112.66429901 110.39080048 2.3120000362 48.500000000
 3301.3000000 0.4350000024 0.0000190381 0.8553339839 112.66429901 110.39080048 2.3120000362 48.000000000
 3301.3700000 0.4370000064 0.0000320641 0.8553339839 112.91559601 111.09220123 2.3450000286 47.500000000
 3301.4400000 0.4325999916 0.0000320641 0.8553339839 112.91559601 111.09220123 2.3450000286 46.299999237
 3301.5100000 0.4325999916 0.0000240481 0.8553339839 113.16690063 110.19039917 2.3880000114 45.099998474
 3301.5800000 0.4332000017 0.0000240481 0.8553339839 113.16690063 110.19039917 2.3880000114 45.449996948
 3301.6500000 0.4332000017 0.0000350702 0.8553339839 113.66940308 109.73950195 2.3880000114 45.799999237
 3301.7200000 0.4338000119 0.0000350702 0.8553339839 113.66940308 109.73950195 2.3880000114 45.733333588
 3301.7900000 0.4338000119 0.0000531062 0.8553339839 114.42320251 110.49099731 2.4210000038 45.666664124
 3301.8600000 0.4393999875 0.0000531062 0.8553339839 114.42320251 110.49099731 2.4210000038 45.599998474
 3301.9300000 0.4533999860 0.0000611222 0.8553339839 115.17699432 110.54109955 2.4079999924 45.799999237
 3302.0000000 0.4533999860 0.0000611222 0.8553339839 115.17699432 110.54109955 2.4079999924 46.000000000
 3302.0700000 0.4453999996 0.0000501002 0.8475077748 114.92569733 112.14430237 2.3889999390 45.650001526
 3302.1400000 0.4453999996 0.0000501002 0.8475077748 114.92569733 112.14430237 2.3889999390 45.299999237
 3302.2100000 0.4266000092 0.0000501002 0.8475077748 114.92569733 112.14430237 2.3889999390 45.449996948
 3302.2800000 0.4266000092 0.0000210421 0.8475077748 114.17189789 109.33869934 2.3619999886 45.599998474
 3302.3500000 0.4212000072 0.0000210421 0.8475077748 114.17189789 109.33869934 2.3619999886 47.000000000
 3302.4200000 0.4212000072 0.0000250501 0.8475077748 112.16179657 109.48899841 2.3519999981 48.400001526
 3302.4900000 0.4158000052 0.0000250501 0.8475077748 112.16179657 109.48899841 2.3519999981 48.349998474
 3302.5600000 0.4090000093 0.0000230461 0.8475077748 109.64910126 110.74150085 2.3559999466 48.299999237
 3302.6300000 0.4090000093 0.0000230461 0.8475077748 109.64910126 110.74150085 2.3559999466 48.000000000
 3302.7000000 0.4149999917 0.0000270541 0.8397533298 109.52349854 109.93990326 2.3570001125 47.700000763
 3302.7700000 0.4149999917 0.0000270541 0.8397533298 109.52349854 109.93990326 2.3570001125 47.400001526
 3302.8400000 0.4115999937 0.0000050100 0.8475077748 111.15670013 111.29260254 2.3499999046 48.000000000
 3302.9100000 0.4115999937 0.0000050100 0.8475077748 111.15670013 111.29260254 2.3499999046 48.599998474
 3302.9800000 0.4104000032 0.0000090180 0.8475077748 112.79000092 112.29460144 2.3399999142 48.250000000
 3303.0500000 0.4092000127 0.0000090180 0.8475077748 112.79000092 112.29460144 2.3399999142 47.900001526
 3303.1200000 0.4092000127 0.0000090180 0.8475077748 112.79000092 112.29460144 2.3399999142 48.150001526
 3303.1900000 0.4339999855 0.0000200401 0.8553339839 112.41310120 111.19239807 2.3199999332 48.400001526
 3303.2600000 0.4339999855 0.0000200401 0.8553339839 112.41310120 111.19239807 2.3199999332 48.150001526
 3303.3300000 0.4381999969 0.0000330662 0.8632324934 112.66429901 112.19439697 2.3039999008 47.900001526
 3303.4000000 0.4381999969 0.0000330662 0.8632324934 112.66429901 112.19439697 2.3039999008 47.400001526
