# LAS format log file from PETREL
# Project units are specified as depth units
#==================================================================
~Version information
VERS.   2.0:
WRAP.   NO:
#==================================================================
~Well
STRT.m   215.0000                                  :START DEPTH    
STOP.m   3894.9700                                 :STOP DEPTH     
STEP.m   0.0700                                    :STEP           
NULL.    -999.25                                   :NULL VALUE     
COMP.    Shell BP Todd                             :COMPANY        
WELL.    Wainui-1                                  :WELL           
FLD .    N/A                                       :FIELD          
LOC .    LAT -38.4626847  LON 173.3085245          :LOCATION       
LATI.    -38.4626847                               :SURF. LATITUDE 
LONG.    173.3085245                               :SURF. LONGITUDE
EKB .m   11.300                                    :KB ELEVATION   
EGL .m   -153.700                                  :GROUND LEVEL   
CTRY.    New Zealand                               :COUNTRY        
SRVC.                                              :SERVICE COMPANY
DATE.    30-10-1981 (D-M-Y)                        :LOG DATE       
UWI .    GEO599                                    :UNIQUE WELL ID 
#==================================================================
~Curve
DEPT .m                   : DEPTH
CNL .m3/m3                : CNL
DRH .g/cm3                : DRH
ILD .ohm.m                : ILD
SP .mV                    : SP
BHC .us/ft                : BHC
FDC .g/cm3                : FDC
GRI .API                  : GRI
~Parameter
#==================================================================
~Ascii
# ...
 1115.1300000 0.5148394108 0.0001377245 0.7244359255 57.500000000 148.35659790 2.0195019245 57.265739441
 1115.2000000 0.5217403173 0.0001377245 0.7244359255 57.500000000 148.35659790 2.0195019245 57.532245636
 1115.2700000 0.5217403173 0.0001916168 0.7379041910 59.750000000 150.90859985 2.0505349636 57.798755646
 1115.3400000 0.5286411047 0.0001916168 0.7379041910 59.750000000 150.90859985 2.0505349636 58.065261841
 1115.4100000 0.5286411047 0.0002095808 0.7516229153 56.250000000 152.71000671 2.0835690498 58.015289307
 1115.4800000 0.5156394839 0.0002095808 0.7516229153 56.250000000 152.71000671 2.0835690498 57.965320587
 1115.5500000 0.5156394839 0.0001836327 0.7447319031 56.750000000 153.61070251 2.0675520897 58.065265656
 1115.6200000 0.4942367971 0.0001836327 0.7447319031 56.750000000 153.61070251 2.0675520897 58.165210724
 1115.6900000 0.4628328979 0.0001836327 0.7447319031 56.750000000 153.61070251 2.0675520897 58.465030670
 1115.7600000 0.4628328979 0.0001177645 0.7447319031 56.750000000 153.01029968 2.0275108814 58.764850616
 1115.8300000 0.4512313902 0.0001177645 0.7447319031 56.750000000 153.01029968 2.0275108814 58.664905548
 1115.9000000 0.4512313902 0.0000568862 0.7447319031 55.750000000 153.11039734 1.9844659567 58.564960480
 1115.9700000 0.4519315064 0.0000568862 0.7447319031 55.750000000 153.11039734 1.9844659567 58.415050507
 1116.0400000 0.4519315064 0.0000828343 0.7379041910 54.500000000 153.91099548 2.0014839172 58.265140533
 1116.1100000 0.4526315928 0.0000828343 0.7379041910 54.500000000 153.91099548 2.0014839172 58.731529236
 1116.1800000 0.4624328017 0.0001317365 0.7311391234 53.375000000 149.75770569 2.0315148830 59.197921753
 1116.2500000 0.4624328017 0.0001317365 0.7311391234 53.375000000 149.75770569 2.0315148830 59.664310455
 1116.3200000 0.4518314898 0.0001337325 0.7244359255 53.000000000 150.05790710 2.0084910393 60.663711548
 1116.3900000 0.4518314898 0.0001337325 0.7244359255 53.000000000 150.05790710 2.0084910393 61.663108826
 1116.4600000 0.4454306960 0.0001337325 0.7244359255 53.000000000 150.05790710 2.0084910393 61.663108826
 1116.5300000 0.4454306960 0.0000848303 0.7046930790 53.000000000 147.95629883 1.9724539518 61.663108826
 1116.6000000 0.4457306862 0.0000848303 0.7046930790 53.000000000 147.95629883 1.9724539518 62.362693787
 1116.6700000 0.4457306862 0.0000558882 0.7112135291 53.375000000 146.30499268 1.9624429941 63.062278748
 1116.7400000 0.4460307062 0.0000558882 0.7112135291 53.375000000 146.30499268 1.9624429941 62.812431335
 1116.8100000 0.4410301149 0.0000728543 0.6982324123 54.000000000 144.95390320 2.0004830360 62.562580109
 1116.8800000 0.4410301149 0.0000728543 0.6982324123 54.000000000 144.95390320 2.0004830360 62.112846375
 1116.9500000 0.4268284142 0.0000508982 0.6792036295 54.500000000 146.80540466 2.0355188847 61.663108826
 1117.0200000 0.4268284142 0.0000508982 0.6792036295 54.500000000 146.80540466 2.0355188847 61.663108826
 1117.0900000 0.4424302876 0.0000578842 0.6854882240 55.125000000 150.60839844 2.0525360107 61.663108826
 1117.1600000 0.4424302876 0.0000578842 0.6854882240 55.125000000 150.60839844 2.0525360107 61.663108826
 1117.2300000 0.4463307858 0.0000479042 0.6792036295 55.250000000 151.90939331 2.0485320091 61.113441467
 1117.3000000 0.4502313137 0.0000479042 0.6792036295 55.250000000 151.90939331 2.0485320091 60.563770294
 1117.3700000 0.4502313137 0.0000479042 0.6792036295 55.250000000 151.90939331 2.0485320091 60.913558960
 1117.4400000 0.4454306960 0.0000499002 0.6918308735 55.000000000 151.75929260 2.0295128822 61.263351440
 1117.5100000 0.4454306960 0.0000499002 0.6918308735 55.000000000 151.75929260 2.0295128822 62.062873840
 1117.5800000 0.4374296963 0.0000778443 0.6982324123 54.500000000 150.65840149 2.0114939213 62.862400055
 1117.6500000 0.4374296963 0.0000778443 0.6982324123 54.500000000 150.65840149 2.0114939213 64.261558533
 1117.7200000 0.4416302145 0.0000998004 0.7046930790 54.125000000 148.30650330 2.0004830360 65.660720825
 1117.7900000 0.4546318948 0.0000998004 0.7046930790 54.125000000 148.30650330 2.0004830360 66.460250854
 1117.8600000 0.4546318948 0.0001297405 0.7046930790 53.375000000 146.30499268 1.9674479961 67.259773254
 1117.9300000 0.4555320144 0.0001297405 0.7046930790 53.375000000 146.30499268 1.9674479961 67.126518250
 1118.0000000 0.4555320144 0.0001447106 0.7177942991 53.000000000 145.40429688 1.9234030247 66.993255615
 1118.0700000 0.4564321041 0.0001447106 0.7177942991 53.000000000 145.40429688 1.9234030247 66.860000610
 1118.1400000 0.4564321041 0.0000928144 0.7311391234 52.500000000 146.10479736 1.9294090271 67.059890747
 1118.2100000 0.4410301149 0.0000928144 0.7311391234 52.500000000 146.10479736 1.9294090271 67.259773254
 1118.2800000 0.4410301149 0.0000928144 0.7311391234 52.500000000 146.10479736 1.9294090271 67.309738159
 1118.3500000 0.4184272885 0.0000908183 0.7516229153 51.750000000 148.30650330 2.0205039978 67.359710693
 1118.4200000 0.4188274145 0.0000908183 0.7516229153 51.750000000 148.30650330 2.0205039978 66.959945679
 1118.4900000 0.4188274145 0.0000379241 0.7447319031 51.500000000 149.50750732 1.9794609547 66.560180664
 1118.5600000 0.4118264914 0.0000379241 0.7447319031 51.500000000 149.50750732 1.9794609547 66.110450745
 1118.6300000 0.4118264914 0.0000898204 0.7585775852 51.500000000 150.20809937 1.9944770336 65.660720825
 1118.7000000 0.4048255980 0.0000898204 0.7585775852 51.500000000 150.20809937 1.9944770336 65.527465820
 1118.7700000 0.4048255980 0.0001297405 0.7585775852 51.750000000 149.40739441 2.0645489693 65.394218445
 1118.8400000 0.3990249038 0.0001297405 0.7585775852 51.750000000 149.40739441 2.0645489693 65.260963440
 1118.9100000 0.4134266973 0.0001117764 0.7655965090 52.500000000 149.90780640 2.0715560913 65.210983276
 1118.9800000 0.4134266973 0.0001117764 0.7655965090 52.500000000 149.90780640 2.0715560913 65.161010742
 1119.0500000 0.4384298027 0.0001047904 0.7585775852 53.125000000 148.60679626 2.0285120010 65.910568237
 1119.1200000 0.4384298027 0.0001047904 0.7585775852 53.125000000 148.60679626 2.0285120010 66.660133362
 1119.1900000 0.4408302009 0.0001047904 0.7585775852 53.125000000 148.60679626 2.0285120010 66.360313416
 1119.2600000 0.4408302009 0.0001317365 0.7655965090 53.750000000 149.80769348 2.0435268879 66.060493469
 1119.3300000 0.4439305961 0.0001317365 0.7655965090 53.750000000 149.80769348 2.0435268879 66.510223389
 1119.4000000 0.4439305961 0.0002055888 0.7726805210 55.500000000 152.30969238 2.0955810547 66.959953308
 1119.4700000 0.4470309019 0.0002055888 0.7726805210 55.500000000 152.30969238 2.0955810547 66.360313416
 1119.5400000 0.4268284142 0.0002035928 0.8090959191 56.750000000 149.00709534 2.1236100197 65.760673523
 1119.6100000 0.4268284142 0.0002035928 0.8090959191 56.750000000 149.00709534 2.1236100197 66.060493469
 1119.6800000 0.4094262123 0.0001866267 0.8165823221 58.125000000 144.30340576 2.1125988960 66.360313416
 1119.7500000 0.4094262123 0.0001866267 0.8165823221 58.125000000 144.30340576 2.1125988960 66.660133362
 1119.8200000 0.4074259102 0.0001307385 0.8317636847 58.875000000 143.95309448 2.0915770531 67.059890747
 1119.8900000 0.4074259102 0.0001307385 0.8317636847 58.875000000 143.95309448 2.0915770531 67.459640503
 1119.9600000 0.4074259102 0.0001307385 0.8317636847 58.875000000 143.95309448 2.0915770531 67.459640503
 1120.0300000 0.4074259102 0.0001307385 0.8317636847 58.875000000 143.95309448 2.0915770531 67.459640503
 1120.1000000 0.4074259102 0.0001307385 0.8317636847 58.875000000 143.95309448 2.0915770531 67.609550476
 1120.1700000 0.4192273915 0.0001137725 0.8472272754 58.750000000 147.35580444 2.0835690498 67.759460449
 1120.2400000 0.4192273915 0.0001137725 0.8472272754 58.750000000 147.35580444 2.0835690498 68.159225464
 1120.3100000 0.4212276042 0.0000798403 0.8550667167 58.250000000 143.90310669 2.0705549717 68.558990479
 1120.3800000 0.4212276042 0.0000798403 0.8550667167 58.250000000 143.90310669 2.0705549717 67.609558105
 1120.4500000 0.4272283912 0.0000389222 0.8472272754 58.250000000 145.20410156 2.0395228863 66.660133362
