# LAS format log file from PETREL
# Project units are specified as depth units
#==================================================================
~Version information
VERS.   2.0:
WRAP.   NO:
#==================================================================
~Well
STRT.m   215.0000                                  :START DEPTH    
STOP.m   3894.9700                                 :STOP DEPTH     
STEP.m   0.0700                                    :STEP           
NULL.    -999.25                                   :NULL VALUE     
COMP.    Shell BP Todd                             :COMPANY        
WELL.    Wainui-1                                  :WELL           
FLD .    N/A                                       :FIELD          
LOC .    LAT -38.4626847  LON 173.3085245          :LOCATION       
LATI.    -38.4626847                               :SURF. LATITUDE 
LONG.    173.3085245                               :SURF. LONGITUDE
EKB .m   11.300                                    :KB ELEVATION   
EGL .m   -153.700                                  :GROUND LEVEL   
CTRY.    New Zealand                               :COUNTRY        
SRVC.                                              :SERVICE COMPANY
DATE.    30-10-1981 (D-M-Y)                        :LOG DATE       
UWI .    GEO599                                    :UNIQUE WELL ID 
#==================================================================
~Curve
DEPT .m                   : DEPTH
CNL .m3/m3                : CNL
DRH .g/cm3                : DRH
ILD .ohm.m                : ILD
SP .mV                    : SP
BHC .us/ft                : BHC
FDC .g/cm3                : FDC
GRI .API                  : GRI
~Parameter
#==================================================================
~Ascii
# ...
 2424.9000000 0.3106999993  -999.250000 2.3295149803 76.602996826 92.404823303 2.4089999199 65.874443054
 2424.9700000 0.3106999993  -999.250000 2.3295149803 76.602996826 92.404823303 2.4089999199 65.720664978
 2425.0400000 0.3014000058  -999.250000 2.3295149803 75.369003296 92.855712891 2.4040000439 65.489997864
 2425.1100000 0.3014000058  -999.250000 2.3295149803 75.369003296 92.855712891 2.4040000439 65.259330750
 2425.1800000 0.3228999972  -999.250000 2.3295149803 75.369003296 92.855712891 2.4040000439 65.028663635
 2425.2500000 0.3287500143  -999.250000 2.3081998825 75.925521851 92.504997253 2.3959999084 64.797996521
 2425.3200000 0.3287500143  -999.250000 2.3081998825 75.925521851 92.504997253 2.3959999084 64.382995605
 2425.3900000 0.3346000016  -999.250000 2.3081998825 76.482040405 92.504997253 2.4049999714 63.967998505
 2425.4600000 0.3346000016  -999.250000 2.3081998825 76.482040405 92.504997253 2.4049999714 63.552497864
 2425.5300000 0.3297249973  -999.250000 2.3295149803 75.979507446 92.955917358 2.4159998894 63.137001038
 2425.6000000 0.3297249973  -999.250000 2.3295149803 75.979507446 92.955917358 2.4159998894 62.998748779
 2425.6700000 0.3248499930  -999.250000 2.3510260582 75.853866577 92.855712891 2.4149999619 62.860500336
 2425.7400000 0.3248499930  -999.250000 2.3510260582 75.853866577 92.855712891 2.4149999619 62.768333435
 2425.8100000 0.3199749887  -999.250000 2.3727359772 75.351348877 92.855712891 2.4300000668 62.676166534
 2425.8800000 0.3151000142  -999.250000 2.3727359772 75.351348877 92.855712891 2.4300000668 62.583999634
 2425.9500000 0.3151000142  -999.250000 2.3946468830 75.351348877 93.456909180 2.4285001755 62.167999268
 2426.0200000 0.3170500100  -999.250000 2.3946468830 75.351348877 93.456909180 2.4285001755 61.751998901
 2426.0900000 0.3170500100  -999.250000 2.3946468830 75.351348877 93.456909180 2.4285001755 61.336502075
 2426.1600000 0.3190000057  -999.250000 2.3946468830 75.602600098 93.306610107 2.4270000458 60.921001434
 2426.2300000 0.3190000057  -999.250000 2.3946468830 75.602600098 93.306610107 2.4270000458 61.059753418
 2426.3000000 0.3095332980  -999.250000 2.4167599678 75.979507446 93.106216431 2.4079999924 61.198501587
 2426.3700000 0.3000667095  -999.250000 2.4167599678 75.979507446 93.106216431 2.4079999924 61.337249756
 2426.4400000 0.3000667095  -999.250000 2.4167599678 76.858932495 92.254501343 2.4249999523 61.476001740
 2426.5100000 0.2906000018  -999.250000 2.4167599678 76.858932495 92.254501343 2.4249999523 61.892501831
 2426.5800000 0.2906000018  -999.250000 2.4167599678 77.361473083 91.953903198 2.4360001087 62.308998108
 2426.6500000 0.2768999934  -999.250000 2.4167599678 77.361473083 91.953903198 2.4360001087 62.863998413
 2426.7200000 0.2768999934  -999.250000 2.4167599678 77.863998413 92.154312134 2.4079999924 63.418998718
 2426.7900000 0.2871499956  -999.250000 2.4167599678 77.863998413 92.154312134 2.4079999924 63.973999023
 2426.8600000 0.2973999977  -999.250000 2.4167599678 77.863998413 93.456909180 2.3989999294 63.557998657
 2426.9300000 0.2973999977  -999.250000 2.4167599678 77.863998413 93.456909180 2.3989999294 63.141998291
 2427.0000000 0.2990333140  -999.250000 2.4167599678 77.863998413 93.456909180 2.3989999294 62.865501404
 2427.0700000 0.2990333140  -999.250000 2.3946468830 77.487106323 93.757507324 2.4200000763 62.589000702
 2427.1400000 0.3006666899  -999.250000 2.3946468830 77.487106323 93.757507324 2.4200000763 62.381248474
 2427.2100000 0.3006666899  -999.250000 2.3727359772 76.356407166 93.657318115 2.4319999218 62.173500061
 2427.2800000 0.3023000062  -999.250000 2.3727359772 76.356407166 93.657318115 2.4319999218 61.965751648
 2427.3500000 0.3023000062  -999.250000 2.3295149803 76.356407166 92.905807495 2.4249999523 61.757999420
 2427.4200000 0.3081667125  -999.250000 2.3295149803 76.356407166 92.905807495 2.4249999523 61.480667114
 2427.4900000 0.3140332997  -999.250000 2.3295149803 75.476966858 92.905807495 2.4279999733 61.203330994
 2427.5600000 0.3140332997  -999.250000 2.3295149803 75.476966858 92.905807495 2.4279999733 60.925998688
 2427.6300000 0.3199000061  -999.250000 2.3081998825 72.587417603 92.304611206 2.4179999828 60.511497498
 2427.7000000 0.3199000061  -999.250000 2.3081998825 72.587417603 92.304611206 2.4179999828 60.097000122
 2427.7700000 0.3154999912  -999.250000 2.3081998825 71.079826355 92.104202271 2.4030001163 60.720748901
 2427.8400000 0.3154999912  -999.250000 2.3081998825 71.079826355 92.104202271 2.4030001163 61.344497681
 2427.9100000 0.3111000061  -999.250000 2.3081998825 71.079826355 92.104202271 2.4030001163 61.968246460
 2427.9800000 0.3066999912  -999.250000 2.3081998825 71.456733704 91.953903198 2.3970000744 62.591999054
 2428.0500000 0.3066999912  -999.250000 2.3081998825 71.456733704 91.953903198 2.3970000744 62.730751038
 2428.1200000 0.3023000062  -999.250000 2.3081998825 75.100082397 91.503013611 2.4100000858 62.869499207
 2428.1900000 0.3023000062  -999.250000 2.3081998825 75.100082397 91.503013611 2.4100000858 63.008247375
 2428.2600000 0.3170000017  -999.250000 2.3081998825 79.120330811 91.503013611 2.4110000134 63.146999359
 2428.3300000 0.3170000017  -999.250000 2.3081998825 79.120330811 91.503013611 2.4110000134 63.177886963
 2428.4000000 0.3189499974  -999.250000 2.3081998825 79.874130249 91.352706909 2.3989999294 63.208778381
 2428.4700000 0.3208999932  -999.250000 2.3081998825 79.874130249 91.352706909 2.3989999294 63.239665985
 2428.5400000 0.3208999932  -999.250000 2.3081998825 79.371597290 91.302597046 2.3929998875 63.285999298
 2428.6100000 0.3163332939  -999.250000 2.3081998825 79.371597290 91.302597046 2.3929998875 63.332332611
 2428.6800000 0.3163332939  -999.250000 2.3510260582 79.371597290 91.452911377 2.4079999924 63.378665924
 2428.7500000 0.3117667139  -999.250000 2.3510260582 79.371597290 91.452911377 2.4079999924 63.424999237
 2428.8200000 0.3117667139  -999.250000 2.3510260582 79.371597290 91.452911377 2.4079999924 63.010498047
 2428.8900000 0.3072000146  -999.250000 2.3510260582 78.869056702 91.252502441 2.4189999104 62.596000671
 2428.9600000 0.3072000146  -999.250000 2.3510260582 78.869056702 91.252502441 2.4189999104 63.011497498
 2429.0300000 0.3101249933  -999.250000 2.3727359772 78.366531372 90.701400757 2.4219999313 63.426998138
 2429.1000000 0.3130500019  -999.250000 2.3727359772 78.366531372 90.701400757 2.4219999313 64.259002686
 2429.1700000 0.3130500019  -999.250000 2.3946468830 77.110198975 90.701400757 2.4070000648 65.091003418
 2429.2400000 0.3159750104  -999.250000 2.3946468830 77.110198975 90.701400757 2.4070000648 65.229835510
 2429.3100000 0.3159750104  -999.250000 2.3727359772 76.356407166 91.252502441 2.3980000019 65.368675232
 2429.3800000 0.3188999891  -999.250000 2.3727359772 76.356407166 91.252502441 2.3980000019 65.507507324
 2429.4500000 0.3188999891  -999.250000 2.3946468830 75.351348877 91.252502441 2.3990001678 65.715759277
 2429.5200000 0.3248000145  -999.250000 2.3946468830 75.351348877 91.252502441 2.3990001678 65.924003601
 2429.5900000 0.3307000101  -999.250000 2.3946468830 74.346282959 91.803596497 2.4000000954 66.201499939
 2429.6600000 0.3307000101  -999.250000 2.3946468830 74.346282959 91.803596497 2.4000000954 66.478996277
 2429.7300000 0.3233500123  -999.250000 2.3946468830 74.346282959 91.803596497 2.4000000954 66.894500732
 2429.8000000 0.3233500123  -999.250000 2.4167599678 73.466842651 92.054107666 2.4140000343 67.309997559
 2429.8700000 0.3160000145  -999.250000 2.4167599678 73.466842651 92.054107666 2.4140000343 66.479003906
 2429.9400000 0.3160000145  -999.250000 2.4167599678 73.089950562 91.753509521 2.4200000763 65.648002625
 2430.0100000 0.3235000074  -999.250000 2.4167599678 73.089950562 91.753509521 2.4200000763 64.817001343
 2430.0800000 0.3235000074  -999.250000 2.4167599678 73.341217041 91.553100586 2.4314999580 63.986000061
 2430.1500000 0.3310000002  -999.250000 2.4167599678 73.341217041 91.553100586 2.4314999580 63.708999634
 2430.2200000 0.3384999931  -999.250000 2.4390769005 73.466842651 91.252502441 2.4430000782 63.431999207
