# LAS format log file from PETREL
# Project units are specified as depth units
#==================================================================
~Version information
VERS.   2.0:
WRAP.   NO:
#==================================================================
~Well
STRT.m   215.0000                                  :START DEPTH    
STOP.m   3894.9700                                 :STOP DEPTH     
STEP.m   0.0700                                    :STEP           
NULL.    -999.25                                   :NULL VALUE     
COMP.    Shell BP Todd                             :COMPANY        
WELL.    Wainui-1                                  :WELL           
FLD .    N/A                                       :FIELD          
LOC .    LAT -38.4626847  LON 173.3085245          :LOCATION       
LATI.    -38.4626847                               :SURF. LATITUDE 
LONG.    173.3085245                               :SURF. LONGITUDE
EKB .m   11.300                                    :KB ELEVATION   
EGL .m   -153.700                                  :GROUND LEVEL   
CTRY.    New Zealand                               :COUNTRY        
SRVC.                                              :SERVICE COMPANY
DATE.    30-10-1981 (D-M-Y)                        :LOG DATE       
UWI .    GEO599                                    :UNIQUE WELL ID 
#==================================================================
~Curve
DEPT .m                   : DEPTH
CNL .m3/m3                : CNL
DRH .g/cm3                : DRH
ILD .ohm.m                : ILD
SP .mV                    : SP
BHC .us/ft                : BHC
FDC .g/cm3                : FDC
GRI .API                  : GRI
~Parameter
#==================================================================
~Ascii
# ...
 2645.8900000 0.2906000018 -0.000005010 3.1261520386 85.904510498 82.785568237 2.4579999447 55.650001526
 2645.9600000 0.2906000018 -0.000005010 3.1261520386 85.904510498 82.785568237 2.4579999447 56.200000763
 2646.0300000 0.2971000075 -0.000005010 3.1261520386 85.904510498 82.785568237 2.4579999447 56.700000763
 2646.1000000 0.3036000133 -0.000007014 3.0975480080 86.155776978 83.537078857 2.4440000057 57.200000763
 2646.1700000 0.3036000133 -0.000007014 3.0975480080 86.155776978 83.537078857 2.4440000057 58.099998474
 2646.2400000 0.3145999908 -0.000005010 3.0411219597 86.407043457 85.691383362 2.4449999332 59.000000000
 2646.3100000 0.3145999908 -0.000005010 3.0411219597 86.407043457 85.691383362 2.4449999332 59.099998474
 2646.3800000 0.3233999908 -0.000003006 2.9857261181 86.658309937 86.743476868 2.4419999123 59.200000763
 2646.4500000 0.3233999908 -0.000003006 2.9857261181 86.658309937 86.743476868 2.4419999123 59.100002289
 2646.5200000 0.3276000023 -0.000003006 2.9313380718 86.783943176 88.046096802 2.4449999332 59.000000000
 2646.5900000 0.3242999911 -0.000003006 2.9313380718 86.783943176 88.046096802 2.4449999332 58.900001526
 2646.6600000 0.3242999911 -0.000002004 2.8779408932 86.909576416 88.897796631 2.4519999027 58.750000000
 2646.7300000 0.3210000098 -0.000002004 2.8779408932 86.909576416 88.897796631 2.4519999027 58.599998474
 2646.8000000 0.3210000098 -0.000003006 2.8516080379 86.658309937 88.947891235 2.4570000172 58.299999237
 2646.8700000 0.3129999936 -0.000003006 2.8516080379 86.658309937 88.947891235 2.4570000172 58.000000000
 2646.9400000 0.3129999936 -0.000003006 2.8516080379 86.658309937 88.947891235 2.4570000172 57.500000000
 2647.0100000 0.3156000078 -0.000011022 2.7996640205 86.155776978 87.094192505 2.4649999142 57.000000000
 2647.0800000 0.3156000078 -0.000011022 2.7996640205 86.155776978 87.094192505 2.4649999142 57.049999237
 2647.1500000 0.3115999997 -0.000007014 2.7740468979 85.527618408 85.991989136 2.4539999962 57.099998474
 2647.2200000 0.3140000105 -0.000007014 2.7740468979 85.527618408 85.991989136 2.4539999962 56.799999237
 2647.2900000 0.3140000105 0.0000070140 2.7740468979 84.899436951 86.442886353 2.4609999657 56.500000000
 2647.3600000 0.3133000135 0.0000070140 2.7740468979 84.899436951 86.442886353 2.4609999657 57.000000000
 2647.4300000 0.3133000135 0.0000070140 2.7740468979 84.396926880 86.042083740 2.4519999027 57.500000000
 2647.5000000 0.3125999868 0.0000070140 2.7740468979 84.396926880 86.042083740 2.4519999027 58.000000000
 2647.5700000 0.3125999868 -0.000001002 2.7486650944 83.768753052 87.144287109 2.4360001087 58.900001526
 2647.6400000 0.3138000071 -0.000001002 2.7486650944 83.768753052 87.144287109 2.4360001087 59.799999237
 2647.7100000 0.3163999915 -0.000006012 2.7235150337 83.391853333 86.893783569 2.4370000362 60.500000000
 2647.7800000 0.3163999915 -0.000006012 2.7235150337 83.391853333 86.893783569 2.4370000362 61.200000763
 2647.8500000 0.3172000051 -0.000006012 2.7235150337 83.391853333 86.893783569 2.4370000362 61.700000763
 2647.9200000 0.3172000051 0.0000000000 2.6985950470 83.140579224 87.444892883 2.4489998817 62.200000763
 2647.9900000 0.3143000007 0.0000000000 2.6985950470 83.140579224 87.444892883 2.4489998817 62.349998474
 2648.0600000 0.3143000007 0.0000040080 2.6251959801 83.391853333 87.845687866 2.4690001011 62.500000000
 2648.1300000 0.3113999963 0.0000040080 2.6251959801 83.391853333 87.845687866 2.4690001011 62.200000763
 2648.2000000 0.3174000084 0.0000010020 2.6011760235 83.768753052 89.649291992 2.4719998837 61.900001526
 2648.2700000 0.3174000084 0.0000010020 2.6011760235 83.768753052 89.649291992 2.4719998837 62.133335114
 2648.3400000 0.3307999969 -0.000005010 2.5773749352 85.150711060 90.951896667 2.4700000286 62.366664886
 2648.4100000 0.3307999969 -0.000005010 2.5773749352 85.150711060 90.951896667 2.4700000286 62.599998474
 2648.4800000 0.3269999921 -0.000001002 2.5773749352 86.407043457 91.503013611 2.4649999142 61.500000000
 2648.5500000 0.3269999921 -0.000001002 2.5773749352 86.407043457 91.503013611 2.4649999142 60.400001526
 2648.6200000 0.3262000084 -0.000005010 2.6011760235 87.412109375 90.951896667 2.4419999123 59.500000000
 2648.6900000 0.3262000084 -0.000005010 2.6011760235 87.412109375 90.951896667 2.4419999123 58.599998474
 2648.7600000 0.3253999949 -0.000005010 2.6011760235 87.412109375 90.951896667 2.4419999123 58.699996948
 2648.8300000 0.3197999895 0.0000110221 2.6494379044 87.914642334 90.851699829 2.4419999123 58.799999237
 2648.9000000 0.3197999895 0.0000110221 2.6494379044 87.914642334 90.851699829 2.4419999123 58.849998474
 2648.9700000 0.3194000125 0.0000160321 2.6985950470 89.422241211 89.298599243 2.4690001011 58.900001526
 2649.0400000 0.3194000125 0.0000160321 2.6985950470 89.422241211 89.298599243 2.4690001011 57.700000763
 2649.1100000 0.3237999976 0.0000170341 2.7740468979 88.417182922 89.048103333 2.4920001030 56.500000000
 2649.1800000 0.3237999976 0.0000170341 2.7740468979 88.417182922 89.048103333 2.4920001030 56.433334351
 2649.2500000 0.3106000125 0.0000160321 2.8779408932 88.417182922 88.246490479 2.5009999275 56.366664886
 2649.3200000 0.3070999980 0.0000160321 2.8779408932 88.417182922 88.246490479 2.5009999275 56.299999237
 2649.3900000 0.3070999980 0.0000150301 2.9584069252 88.919692993 87.044082642 2.5079998970 55.949996948
 2649.4600000 0.3036000133 0.0000150301 2.9584069252 88.919692993 87.044082642 2.5079998970 55.599998474
 2649.5300000 0.3036000133 0.0000150301 2.9584069252 88.919692993 87.044082642 2.5079998970 55.699996948
 2649.6000000 0.3003999889 0.0000170341 3.0132970810 89.170967102 86.292587280 2.5079998970 55.799999237
 2649.6700000 0.3003999889 0.0000170341 3.0132970810 89.170967102 86.292587280 2.5079998970 55.699996948
 2649.7400000 0.3027999997 0.0000160321 3.0975480080 88.794067383 85.490982056 2.5009999275 55.599998474
 2649.8100000 0.3036000133 0.0000160321 3.0975480080 88.794067383 85.490982056 2.5009999275 55.299999237
 2649.8800000 0.3036000133 0.0000110221 3.1261520386 87.663383484 85.741493225 2.4979999065 55.000000000
 2649.9500000 0.3000999987 0.0000110221 3.1261520386 87.663383484 85.741493225 2.4979999065 55.200000763
 2650.0200000 0.3000999987 0.0000050100 3.1261520386 86.909576416 86.042083740 2.4820001125 55.400001526
 2650.0900000 0.2966000140 0.0000050100 3.1261520386 86.909576416 86.042083740 2.4820001125 56.033332825
 2650.1600000 0.2966000140 0.0000120240 3.1261520386 86.658309937 86.893783569 2.4660000801 56.666667938
 2650.2300000 0.2969999909 0.0000120240 3.1261520386 86.658309937 86.893783569 2.4660000801 57.299999237
 2650.3000000 0.2969999909 0.0000140281 3.1261520386 86.909576416 87.495002747 2.4649999142 57.900001526
 2650.3700000 0.2939999998 0.0000140281 3.1261520386 86.909576416 87.495002747 2.4649999142 58.500000000
 2650.4400000 0.2971999943 0.0000140281 3.1261520386 86.909576416 87.495002747 2.4649999142 58.400001526
 2650.5100000 0.2971999943 0.0000190381 3.0975480080 87.160842896 87.144287109 2.4809999466 58.299999237
 2650.5800000 0.2890000045 0.0000190381 3.0975480080 87.160842896 87.144287109 2.4809999466 58.199996948
 2650.6500000 0.2890000045 0.0000350702 3.0975480080 87.412109375 87.745483398 2.4930000305 58.099998474
 2650.7200000 0.2815999985 0.0000350702 3.0975480080 87.412109375 87.745483398 2.4930000305 58.400001526
 2650.7900000 0.2815999985 0.0000390782 3.0975480080 88.040267944 87.044082642 2.5220000744 58.700000763
 2650.8600000 0.2741999924 0.0000390782 3.0975480080 88.040267944 87.044082642 2.5220000744 58.900001526
 2650.9300000 0.2806000113 0.0000240481 3.0411219597 88.165908813 86.442886353 2.5169999599 59.099998474
 2651.0000000 0.2806000113 0.0000240481 3.0411219597 88.165908813 86.442886353 2.5169999599 59.299999237
 2651.0700000 0.2892000079 0.0000060120 3.0411219597 88.919692993 86.442886353 2.4979999065 58.750000000
 2651.1400000 0.2892000079 0.0000060120 3.0411219597 88.919692993 86.442886353 2.4979999065 58.200000763
 2651.2100000 0.2933999896 0.0000010020 3.0975480080 89.422241211 86.943893433 2.4890000820 58.150001526
