# LAS format log file from PETREL
# Project units are specified as depth units
#==================================================================
~Version information
VERS.   2.0:
WRAP.   NO:
#==================================================================
~Well
STRT.m   215.0000                                  :START DEPTH    
STOP.m   3894.9700                                 :STOP DEPTH     
STEP.m   0.0700                                    :STEP           
NULL.    -999.25                                   :NULL VALUE     
COMP.    Shell BP Todd                             :COMPANY        
WELL.    Wainui-1                                  :WELL           
FLD .    N/A                                       :FIELD          
LOC .    LAT -38.4626847  LON 173.3085245          :LOCATION       
LATI.    -38.4626847                               :SURF. LATITUDE 
LONG.    173.3085245                               :SURF. LONGITUDE
EKB .m   11.300                                    :KB ELEVATION   
EGL .m   -153.700                                  :GROUND LEVEL   
CTRY.    New Zealand                               :COUNTRY        
SRVC.                                              :SERVICE COMPANY
DATE.    30-10-1981 (D-M-Y)                        :LOG DATE       
UWI .    GEO599                                    :UNIQUE WELL ID 
#==================================================================
~Curve
DEPT .m                   : DEPTH
CNL .m3/m3                : CNL
DRH .g/cm3                : DRH
ILD .ohm.m                : ILD
SP .mV                    : SP
BHC .us/ft                : BHC
FDC .g/cm3                : FDC
GRI .API                  : GRI
~Parameter
#==================================================================
~Ascii
# ...
 3890.9800000 -0.000600000 0.0000006466 13.677289963 66.992538452  -999.250000 2.4980010986 0.0000000000
 3891.0500000 -0.000600000 0.0000006466 13.677289963 66.992538452  -999.250000 2.4980010986 0.0000000000
 3891.1200000 -0.000600000 -0.000000353 13.182570457 66.500000000  -999.250000 2.4980010986 0.0000000000
 3891.1900000 -0.000600000 -0.000000353 13.182570457 66.500000000  -999.250000 2.4980010986 0.0000000000
 3891.2600000 -0.000600000 -0.000001352 13.182570457 66.500000000  -999.250000 2.4980010986 0.0000000000
 3891.3300000 -0.000600000 -0.000001352 13.182570457 66.500000000  -999.250000 2.4980010986 0.0000000000
 3891.4000000 -0.000600000 -0.000001352 38.725769043 66.253723145  -999.250000 2.4980010986 0.0000000000
 3891.4700000 -0.000600000 -0.000001352 38.725769043 66.253723145  -999.250000 2.4980010986 0.0000000000
 3891.5400000 -0.000600000 -0.000001352 52.966350555 66.253723145  -999.250000 2.4980010986 0.0000000000
 3891.6100000 -0.000600000 -0.000001352 52.966350555 66.253723145  -999.250000 2.4980010986 0.0000000000
 3891.6800000 -0.000600000 -0.000001352 51.999610901 66.623138428  -999.250000 2.5000000000 0.0000000000
 3891.7500000 -0.000600000 -0.000001352 51.999610901 66.623138428  -999.250000 2.5000000000 0.0000000000
 3891.8200000 -0.000600000 -0.000001352 51.999610901 66.623138428  -999.250000 2.5000000000 0.0000000000
 3891.8900000 -0.000600000 0.0000006466 51.522888184 66.500000000  -999.250000 2.4980010986 0.0000000000
 3891.9600000 -0.000600000 0.0000006466 51.522888184 66.500000000  -999.250000 2.4980010986 0.0000000000
 3892.0300000 -0.000600000 -0.000001352 52.966350555 66.992538452  -999.250000 2.4980010986 0.0000000000
 3892.1000000 -0.000600000 -0.000001352 52.966350555 66.992538452  -999.250000 2.4980010986 0.0000000000
 3892.1700000 -0.000600000 -0.000001352 50.118728638 67.485076904  -999.250000 2.4980010986 0.0000000000
 3892.2400000 -0.000600000 -0.000001352 50.118728638 67.485076904  -999.250000 2.4980010986 0.0000000000
 3892.3100000 -0.000600000 0.0000006466 48.305900574 67.238800049  -999.250000 2.5000000000 0.0000000000
 3892.3800000 -0.000600000 0.0000006466 48.305900574 67.238800049  -999.250000 2.5000000000 0.0000000000
 3892.4500000 -0.000600000 -0.000001352 42.854869843 67.238800049  -999.250000 2.4980010986 0.0000000000
 3892.5200000 -0.000600000 -0.000001352 42.854869843 67.238800049  -999.250000 2.4980010986 0.0000000000
 3892.5900000 -0.000600000 -0.000001352 41.304759979 67.238800049  -999.250000 2.4980010986 0.0000000000
 3892.6600000 -0.000600000 -0.000001352 41.304759979 67.238800049  -999.250000 2.4980010986 0.0000000000
 3892.7300000 -0.000600000 -0.000001352 41.304759979 67.238800049  -999.250000 2.4980010986  -999.250000
 3892.8000000 -0.000600000 -0.000000353 37.670391083 67.238800049  -999.250000 2.4980010986  -999.250000
 3892.8700000 -0.000600000 -0.000000353 37.670391083 67.238800049  -999.250000 2.4980010986  -999.250000
 3892.9400000 -0.000600000 -0.000001352 38.725769043 67.485076904  -999.250000 2.4980010986  -999.250000
 3893.0100000 -0.000600000 -0.000001352 38.725769043 67.485076904  -999.250000 2.4980010986  -999.250000
 3893.0800000 -0.000600000 -0.000000353  -999.250000  -999.250000  -999.250000 2.4980010986  -999.250000
 3893.1500000 -0.000600000 -0.000000353  -999.250000  -999.250000  -999.250000 2.4980010986  -999.250000
 3893.2200000 -0.000600000 -0.000000353  -999.250000  -999.250000  -999.250000 2.5000000000  -999.250000
 3893.2900000 -0.000600000 -0.000000353  -999.250000  -999.250000  -999.250000 2.5000000000  -999.250000
 3893.3600000 -0.000600000 -0.000000353  -999.250000  -999.250000  -999.250000 2.5000000000  -999.250000
 3893.4300000 -0.000600000 -0.000000353  -999.250000  -999.250000  -999.250000 2.5000000000  -999.250000
 3893.5000000 -0.000600000 -0.000000353  -999.250000  -999.250000  -999.250000 2.5000000000  -999.250000
 3893.5700000 -0.000600000 -0.000000353  -999.250000  -999.250000  -999.250000 2.5000000000  -999.250000
 3893.6400000 -0.000600000 -0.000000353  -999.250000  -999.250000  -999.250000 2.5000000000  -999.250000
 3893.7100000 -0.000600000 -0.000000353  -999.250000  -999.250000  -999.250000 2.5000000000  -999.250000
 3893.7800000 -0.000600000 -0.000000353  -999.250000  -999.250000  -999.250000 2.5000000000  -999.250000
 3893.8500000 -0.000600000 -0.000000353  -999.250000  -999.250000  -999.250000 2.4980010986  -999.250000
 3893.9200000 -0.000600000 -0.000000353  -999.250000  -999.250000  -999.250000 2.4980010986  -999.250000
 3893.9900000 -0.000600000 -0.000001352  -999.250000  -999.250000  -999.250000 2.4980010986  -999.250000
 3894.0600000  -999.250000 -0.000001352  -999.250000  -999.250000  -999.250000 2.4980010986  -999.250000
 3894.1300000  -999.250000  -999.250000  -999.250000  -999.250000  -999.250000  -999.250000  -999.250000
 3894.2000000  -999.250000  -999.250000  -999.250000  -999.250000  -999.250000  -999.250000  -999.250000
 3894.2700000  -999.250000  -999.250000  -999.250000  -999.250000  -999.250000  -999.250000  -999.250000
 3894.3400000  -999.250000  -999.250000  -999.250000  -999.250000  -999.250000  -999.250000  -999.250000
 3894.4100000  -999.250000  -999.250000  -999.250000  -999.250000  -999.250000  -999.250000  -999.250000
 3894.4800000  -999.250000  -999.250000  -999.250000  -999.250000  -999.250000  -999.250000  -999.250000
 3894.5500000  -999.250000  -999.250000  -999.250000  -999.250000  -999.250000  -999.250000  -999.250000
 3894.6200000  -999.250000  -999.250000  -999.250000  -999.250000  -999.250000  -999.250000  -999.250000
 3894.6900000  -999.250000  -999.250000  -999.250000  -999.250000  -999.250000  -999.250000  -999.250000
 3894.7600000  -999.250000  -999.250000  -999.250000  -999.250000  -999.250000  -999.250000  -999.250000
 3894.8300000  -999.250000  -999.250000  -999.250000  -999.250000  -999.250000  -999.250000  -999.250000
 3894.9000000  -999.250000  -999.250000  -999.250000  -999.250000  -999.250000  -999.250000  -999.250000
 3894.9700000  -999.250000  -999.250000  -999.250000  -999.250000  -999.250000  -999.250000  -999.250000
