# LAS format log file from PETREL
# Project units are specified as depth units
#==================================================================
~Version information
VERS.   2.0:
WRAP.   NO:
#==================================================================
~Well
STRT.m   215.0000                                  :START DEPTH    
STOP.m   3894.9700                                 :STOP DEPTH     
STEP.m   0.0700                                    :STEP           
NULL.    -999.25                                   :NULL VALUE     
COMP.    Shell BP Todd                             :COMPANY        
WELL.    Wainui-1                                  :WELL           
FLD .    N/A                                       :FIELD          
LOC .    LAT -38.4626847  LON 173.3085245          :LOCATION       
LATI.    -38.4626847                               :SURF. LATITUDE 
LONG.    173.3085245                               :SURF. LONGITUDE
EKB .m   11.300                                    :KB ELEVATION   
EGL .m   -153.700                                  :GROUND LEVEL   
CTRY.    New Zealand                               :COUNTRY        
SRVC.                                              :SERVICE COMPANY
DATE.    30-10-1981 (D-M-Y)                        :LOG DATE       
UWI .    GEO599                                    :UNIQUE WELL ID 
#==================================================================
~Curve
DEPT .m                   : DEPTH
CNL .m3/m3                : CNL
DRH .g/cm3                : DRH
ILD .ohm.m                : ILD
SP .mV                    : SP
BHC .us/ft                : BHC
FDC .g/cm3                : FDC
GRI .API                  : GRI
~Parameter
#==================================================================
~Ascii
# ...
 2209.3000000 0.3082000017 0.0000120240 2.6011760235 86.909576416 91.452911377 2.4219999313 62.433334351
 2209.3700000 0.3001999855 0.0000100200 2.6251959801 87.412109375 92.304611206 2.4219999313 62.466667175
 2209.4400000 0.3001999855 0.0000100200 2.6251959801 87.412109375 92.304611206 2.4219999313 62.500000000
 2209.5100000 0.3046000004 0.0000060120 2.6494379044 87.914642334 91.352706909 2.4230000973 62.549999237
 2209.5800000 0.3046000004 0.0000060120 2.6494379044 87.914642334 91.352706909 2.4230000973 62.599998474
 2209.6500000 0.3036000133 0.0000040080 2.6739029884 88.794067383 90.651313782 2.4140000343 63.000000000
 2209.7200000 0.3036000133 0.0000040080 2.6739029884 88.794067383 90.651313782 2.4140000343 63.400001526
 2209.7900000 0.3041000068 0.0000040080 2.6739029884 88.794067383 90.651313782 2.4140000343 63.050003052
 2209.8600000 0.3046000004 0.0000090180 2.6739029884 89.924758911 92.104202271 2.4059998989 62.700000763
 2209.9300000 0.3046000004 0.0000090180 2.6739029884 89.924758911 92.104202271 2.4059998989 63.099998474
 2210.0000000 0.3046000004 0.0000190381 2.6739029884 90.804199219 95.661323547 2.4040000439 63.500000000
 2210.0700000 0.3046000004 0.0000190381 2.6739029884 90.804199219 95.661323547 2.4040000439 63.650001526
 2210.1400000 0.3228000104 0.0000130261 2.6739029884 91.432357788 95.561126709 2.4040000439 63.799999237
 2210.2100000 0.3228000104 0.0000130261 2.6739029884 91.432357788 95.561126709 2.4040000439 63.500000000
 2210.2800000 0.3100000024 0.0000090180 2.6739029884 91.809272766 97.264526367 2.4140000343 63.200000763
 2210.3500000 0.3100000024 0.0000090180 2.6739029884 91.809272766 97.264526367 2.4140000343 62.900001526
 2210.4200000 0.3007999957 0.0000080160 2.6494379044 91.934890747 94.759521484 2.4049999714 63.150001526
 2210.4900000 0.2915999889 0.0000080160 2.6494379044 91.934890747 94.759521484 2.4049999714 63.400001526
 2210.5600000 0.2915999889 0.0000110221 2.6494379044 92.060531616 92.605209351 2.4049999714 62.849998474
 2210.6300000 0.2996000051 0.0000110221 2.6494379044 92.060531616 92.605209351 2.4049999714 62.299999237
 2210.7000000 0.2996000051 0.0000110221 2.6494379044 92.060531616 92.605209351 2.4049999714 62.150001526
 2210.7700000 0.3125999868 0.0000070140 2.6494379044 92.186157227 93.156311035 2.3949999809 62.000000000
 2210.8400000 0.3125999868 0.0000070140 2.6494379044 92.186157227 93.156311035 2.3949999809 62.049999237
 2210.9100000 0.3072000146 0.0000190381 2.6739029884 92.060531616 93.456909180 2.4049999714 62.099998474
 2210.9800000 0.2978000045 0.0000190381 2.6739029884 92.060531616 93.456909180 2.4049999714 62.049999237
 2211.0500000 0.2978000045 0.0000140281 2.6985950470 91.934890747 93.356719971 2.4019999504 62.000000000
 2211.1200000 0.2982000113 0.0000140281 2.6985950470 91.934890747 93.356719971 2.4019999504 61.799999237
 2211.1900000 0.2982000113 0.0000070140 2.6985950470 92.186157227 92.655296326 2.3900001049 61.600002289
 2211.2600000 0.2985999882 0.0000070140 2.6985950470 92.186157227 92.655296326 2.3900001049 61.400001526
 2211.3300000 0.2985999882 0.0000160321 2.7235150337 91.683616638 91.803596497 2.4019999504 61.550003052
 2211.4000000 0.2948000133 0.0000160321 2.7235150337 91.683616638 91.803596497 2.4019999504 61.700000763
 2211.4700000 0.2948000133 0.0000200401 2.7235150337 90.804199219 90.901809692 2.4249999523 61.500000000
 2211.5400000 0.3001999855 0.0000200401 2.7235150337 90.804199219 90.901809692 2.4249999523 61.299999237
 2211.6100000 0.3061999977 0.0000200401 2.7235150337 90.804199219 90.901809692 2.4249999523 61.049999237
 2211.6800000 0.3061999977 0.0000430862 2.7235150337 90.678558350 91.803596497 2.4360001087 60.799999237
 2211.7500000 0.3064000010 0.0000430862 2.7235150337 90.678558350 91.803596497 2.4360001087 60.799999237
 2211.8200000 0.3064000010 0.0000230461 2.7486650944 90.427291870 90.801612854 2.4279999733 60.799999237
 2211.8900000 0.3066000044 0.0000230461 2.7486650944 90.427291870 90.801612854 2.4279999733 61.199996948
 2211.9600000 0.3066000044 0.0000090180 2.7486650944 90.678558350 91.001998901 2.4130001068 61.599998474
 2212.0300000 0.3091999888 0.0000090180 2.7486650944 90.678558350 91.001998901 2.4130001068 61.399997711
 2212.1000000 0.3109999895 0.0000110221 2.7486650944 90.929817200 93.957916260 2.4200000763 61.200000763
 2212.1700000 0.3109999895 0.0000110221 2.7486650944 90.929817200 93.957916260 2.4200000763 61.000000000
 2212.2400000 0.3190000057 0.0000140281 2.7486650944 91.432357788 93.356719971 2.4260001183 60.799999237
 2212.3100000 0.3190000057 0.0000140281 2.7486650944 91.432357788 93.356719971 2.4260001183 60.599998474
 2212.3800000 0.3321999907 0.0000100200 2.7235150337 91.809272766 92.454910278 2.4330000877 60.900001526
 2212.4500000 0.3321999907 0.0000100200 2.7235150337 91.809272766 92.454910278 2.4330000877 61.200000763
 2212.5200000 0.3319000006 0.0000100200 2.7235150337 91.809272766 92.454910278 2.4330000877 61.700000763
 2212.5900000 0.3316000104 0.0000150301 2.7235150337 92.688690186 93.507019043 2.4340000153 62.200000763
 2212.6600000 0.3316000104 0.0000150301 2.7235150337 92.688690186 93.507019043 2.4340000153 62.400001526
 2212.7300000 0.3276000023 0.0000290581 2.6985950470 93.442489624 91.352706909 2.4489998817 62.599998474
 2212.8000000 0.3276000023 0.0000290581 2.6985950470 93.442489624 91.352706909 2.4489998817 63.049999237
 2212.8700000 0.3138000071 0.0000310621 2.6985950470 94.824447632 91.603210449 2.4660000801 63.500000000
 2212.9400000 0.3138000071 0.0000310621 2.6985950470 94.824447632 91.603210449 2.4660000801 63.666667938
 2213.0100000 0.3075999916 0.0000360722 2.6985950470 95.452606201 92.655296326 2.4679999352 63.833332062
 2213.0800000 0.3075999916 0.0000360722 2.6985950470 95.452606201 92.655296326 2.4679999352 64.000000000
 2213.1500000 0.3131999969 0.0000370741 2.6739029884 95.452606201 91.853706360 2.4579999447 64.000000000
 2213.2200000 0.3188000023 0.0000370741 2.6739029884 95.452606201 91.853706360 2.4579999447 64.000000000
 2213.2900000 0.3188000023 0.0000370741 2.6739029884 95.452606201 91.853706360 2.4579999447 63.849998474
 2213.3600000 0.3077999949 0.0000480962 2.6739029884 95.201339722 92.855712891 2.4649999142 63.700000763
 2213.4300000 0.3077999949 0.0000480962 2.6739029884 95.201339722 92.855712891 2.4649999142 63.550003052
 2213.5000000 0.3041999936 0.0000400802 2.6739029884 94.698822021 92.454910278 2.4679999352 63.400001526
 2213.5700000 0.3041999936 0.0000400802 2.6739029884 94.698822021 92.454910278 2.4679999352 63.150001526
 2213.6400000 0.2921999991 0.0000410822 2.6494379044 94.447563171 94.158309937 2.4730000496 62.900001526
 2213.7100000 0.2899999917 0.0000410822 2.6494379044 94.447563171 94.158309937 2.4730000496 62.450000763
 2213.7800000 0.2899999917 0.0000270541 2.6251959801 93.819381714 93.857711792 2.4730000496 62.000000000
 2213.8500000 0.2899999917 0.0000270541 2.6251959801 93.819381714 93.857711792 2.4730000496 62.200000763
 2213.9200000 0.2899999917 0.0000150301 2.6011760235 93.442489624 93.356719971 2.4530000687 62.399997711
 2213.9900000 0.2899999917 0.0000150301 2.6011760235 93.442489624 93.356719971 2.4530000687 62.599998474
 2214.0600000 0.2899999917 0.0000090180 2.5773749352 93.191223145 93.957916260 2.4440000057 61.849998474
 2214.1300000 0.2784000039 0.0000090180 2.5773749352 93.191223145 93.957916260 2.4440000057 61.099998474
 2214.2000000 0.2684000134 0.0000090180 2.5773749352 93.191223145 93.957916260 2.4440000057 60.949996948
 2214.2700000 0.2684000134 0.0000000000 2.5304260254 92.563049316 91.853706360 2.4289999008 60.799999237
 2214.3400000 0.2685999870 0.0000000000 2.5304260254 92.563049316 91.853706360 2.4289999008 60.049999237
 2214.4100000 0.2685999870 0.0000030060 2.4843320847 92.814323425 92.154312134 2.4179999828 59.299999237
 2214.4800000 0.2741000056 0.0000030060 2.4843320847 92.814323425 92.154312134 2.4179999828 58.400001526
 2214.5500000 0.2741000056 0.0000040080 2.4390769005 93.191223145 93.757507324 2.4100000858 57.500000000
 2214.6200000 0.2795999944 0.0000040080 2.4390769005 93.191223145 93.757507324 2.4100000858 56.900001526
